[
  {
    "name": "Houston Iron Recycling with Gulf Coast Scrap Metal",
    "website": "https://houstontexasiron.com/",
    "street_address": "4111\n8770 Hempstead Road",
    "city": "Houston",
    "region": "TX",
    "postal_code": "77008",
    "country": "United States",
    "phones": [
      "(713) 868-4111"
    ],
    "emails": [],
    "whatsapp": [],
    "social_links": [],
    "opening_hours": "",
    "materials": [
      "Scrap Metal",
      "Iron"
    ],
    "material_prices": [],
    "description": "Houston iron recycling center – Gulf Coast Scrap Metal – has the best scrap iron prices in town. Please call 713-868-4111."
  },
  {
    "name": "INDUSTRIAL DEMOLITON",
    "website": "https://texassalvageandsurplusbuyers.com/industrial-demoliton-houston-tx/",
    "street_address": "",
    "city": "",
    "region": "",
    "postal_code": "",
    "country": "United States",
    "phones": [
      "(832) 356-9014"
    ],
    "emails": [],
    "whatsapp": [],
    "social_links": [],
    "opening_hours": "",
    "materials": [
      "Aluminum",
      "Lead",
      "Battery",
      "Scrap Metal",
      "Steel",
      "Stainless Steel",
      "Copper",
      "Iron"
    ],
    "material_prices": [],
    "description": "Industrial Demolition Houston TX. We do industrial demolition in Houston. We offer free written estimates. Scrap Metal Salvage demolition."
  },
  {
    "name": "San Antonio Scrap Metal Removal ~ Texas",
    "website": "https://goloadup.com/san-antonio/scrap-metal-removal/",
    "street_address": "85 NE Interstate 410 Loop #404",
    "city": "San Antonio",
    "region": "TX",
    "postal_code": "78216",
    "country": "United States",
    "phones": [
      "(844) 239-7711",
      "(404) 947-6060"
    ],
    "emails": [],
    "whatsapp": [],
    "social_links": [],
    "opening_hours": "Monday – Sunday 8:00 AM – 8:00 PM EST",
    "materials": [
      "Appliance",
      "Lead",
      "Scrap Metal",
      "Electronic",
      "Iron"
    ],
    "material_prices": [],
    "description": "From heavy metal debris to old appliances, we haul it all in San Antonio, TX. Count on our background-checked team for reliable scrap metal removal and disposal."
  },
  {
    "name": "Houston TX Aluminum Recycling Center",
    "website": "https://astrocityscrap.com/houston-tx-aluminum-recycling-center/",
    "street_address": "4530 North Shepherd Houst",
    "city": "on",
    "region": "TX",
    "postal_code": "77018",
    "country": "United States",
    "phones": [
      "(713) 697-2999"
    ],
    "emails": [
      "donbuntin1@gmail.com"
    ],
    "whatsapp": [],
    "social_links": [],
    "opening_hours": "",
    "materials": [
      "Brass",
      "Aluminum",
      "Scrap Metal",
      "Steel",
      "Stainless Steel",
      "Copper",
      "Iron"
    ],
    "material_prices": [],
    "description": "Houston TX Aluminum Recycling Center, Astro City Scrap Metal will pay you top dollar for your scrap metal in CASH! Call now!"
  },
  {
    "name": "Houston’s E-Waste Recycling Centers: What to Expect",
    "website": "https://ecircular.com/houstons-e-waste-recycling-centers/",
    "street_address": "2025 \n\n\n\neCircular \n\n\n\n\n\n\n\n\n\n\n\n\n\n\n455 W 38th St",
    "city": "Houston",
    "region": "TX",
    "postal_code": "77018",
    "country": "United States",
    "phones": [
      "(800) 356-8933",
      "(713) 660-1815"
    ],
    "emails": [
      "info@ecircular.com",
      "office@tecnologia.com"
    ],
    "whatsapp": [],
    "social_links": [],
    "opening_hours": "",
    "materials": [
      "Electronic",
      "Battery",
      "Iron"
    ],
    "material_prices": [],
    "description": "Becoming familiar with these centers and how they operate can ensure a smooth recycling experience while contributing to a sustainable future."
  },
  {
    "name": "Recycling",
    "website": "https://dfwrolloff.com/services/recycling/",
    "street_address": "12021 Jacksboro Hwy",
    "city": "Fort Worth",
    "region": "TX",
    "postal_code": "76135",
    "country": "United States",
    "phones": [
      "(817) 369-3068"
    ],
    "emails": [],
    "whatsapp": [],
    "social_links": [],
    "opening_hours": "",
    "materials": [
      "Iron"
    ],
    "material_prices": [],
    "description": ""
  },
  {
    "name": "Metal recycling dallas tx",
    "website": "https://www.actionmetalsrecyclers.com/",
    "street_address": "3514 Botham Jean Blvd",
    "city": "Dallas",
    "region": "TX",
    "postal_code": "75215",
    "country": "United States",
    "phones": [
      "(214) 421-9932",
      "(214) 421-9981",
      "(469) 490-0079"
    ],
    "emails": [
      "boris@actionmetalsinc.com",
      "officestaff@actionmetalsinc.com"
    ],
    "whatsapp": [],
    "social_links": [],
    "opening_hours": "Mon-Fri : 8am - 6:00pm Sat : 8am - 4:30pm Sun : 8am - 12:30pm",
    "materials": [
      "Brass",
      "Aluminum",
      "Lead",
      "Scrap Metal",
      "Steel",
      "Stainless Steel",
      "Copper",
      "Iron"
    ],
    "material_prices": [],
    "description": "Choose Action Metal Recyclers for top-notch metal recycling in Dallas, TX. Contact us now for great rates and more information."
  },
  {
    "name": "Residential E-Waste Recycling",
    "website": "https://compucycle.com/residential-electronics-recycling/",
    "street_address": "8019 Kempwood Dr",
    "city": "Houston",
    "region": "TX",
    "postal_code": "77055",
    "country": "United States",
    "phones": [
      "(888) 314-7922",
      "(713) 999-4671",
      "(713) 869-6700"
    ],
    "emails": [
      "info@compucycle.com",
      "713-866-8033info@compucycle.comour"
    ],
    "whatsapp": [],
    "social_links": [],
    "opening_hours": "",
    "materials": [
      "Appliance",
      "Electronic",
      "Iron"
    ],
    "material_prices": [],
    "description": "Safely recycle your personal electronics with CompuCycle’s residential recycling program. We provide secure and eco-friendly disposal for old devices, ensuring responsible e-waste management while protecting your data and the environment."
  },
  {
    "name": "Dallas Scrap Metal Buyers & Recycling Centers",
    "website": "https://scrapvisor.com/texas/dallas/",
    "street_address": "0\n\n\n\n\n\n\n\n\nOcean Star Metals\n2019 Ruder St",
    "city": "Dallas",
    "region": "TX",
    "postal_code": "75212",
    "country": "United States",
    "phones": [
      "(972) 303-8388",
      "(214) 421-9981",
      "(972) 869-0802"
    ],
    "emails": [],
    "whatsapp": [],
    "social_links": [],
    "opening_hours": "",
    "materials": [
      "Zinc",
      "Brass",
      "Aluminum",
      "Lead",
      "Scrap Metal",
      "Steel",
      "Stainless Steel",
      "Copper",
      "Iron"
    ],
    "material_prices": [],
    "description": "Find trusted scrap metal buyers and recycling centers in Dallas. View up-to-date scrap metal prices, explore our interactive map of local scrap yards, and connect with reputable companies for fast and profitable scrap sales."
  },
  {
    "name": "Electronic Recycling in Houston, TX",
    "website": "https://therecycleguide.org/electronic-recycling/houston-tx/",
    "street_address": "",
    "city": "",
    "region": "",
    "postal_code": "",
    "country": "United States",
    "phones": [
      "(855) 713-6280"
    ],
    "emails": [],
    "whatsapp": [],
    "social_links": [],
    "opening_hours": "",
    "materials": [
      "Appliance",
      "Lead",
      "Battery",
      "Electronic",
      "Iron"
    ],
    "material_prices": [],
    "description": ""
  },
  {
    "name": "Dallas’ Trusted Source for Quality Used Auto Parts & Salvage Vehicles",
    "website": "https://aaaautorecyclers.com/",
    "street_address": "1753 S Beltline Rd",
    "city": "Dallas",
    "region": "TX",
    "postal_code": "75253",
    "country": "United States",
    "phones": [],
    "emails": [],
    "whatsapp": [],
    "social_links": [],
    "opening_hours": "",
    "materials": [
      "Auto Parts"
    ],
    "material_prices": [],
    "description": "Design a professional mechanic site with Avada. Showcase services, customer testimonials, and expertise effortlessly. Perfect for auto repair shops."
  },
  {
    "name": "Houston, Texas - 77049 Local Recycling Centers",
    "website": "https://recyclingcenters.org/Texas/Houston_77049_recycling_centers.php",
    "street_address": "10217 Wallisville Rd\n                                                                Houst",
    "city": "on",
    "region": "TX",
    "postal_code": "77013",
    "country": "United States",
    "phones": [],
    "emails": [],
    "whatsapp": [],
    "social_links": [],
    "opening_hours": "",
    "materials": [
      "Appliance",
      "Aluminum",
      "Scrap Metal",
      "Electronic",
      "Iron"
    ],
    "material_prices": [],
    "description": "Houston, Texas 77049 Local Recycling Centers and Recycling Information and Statistics"
  },
  {
    "name": "A Premier Dumpster Rental and Scrap Metal Service in Houston, TX",
    "website": "https://www.essential-waste.com/",
    "street_address": "",
    "city": "",
    "region": "",
    "postal_code": "",
    "country": "United States",
    "phones": [
      "(713) 702-1860"
    ],
    "emails": [],
    "whatsapp": [],
    "social_links": [],
    "opening_hours": "",
    "materials": [
      "Aluminum",
      "Scrap Metal",
      "Steel",
      "Copper",
      "Iron"
    ],
    "material_prices": [],
    "description": "Efficient dumpster rental and disposal of scrap metals. Call now!"
  },
  {
    "name": "Global Leaders in Scrap Metal Recycling and Supply",
    "website": "https://goldstarmetals.com/",
    "street_address": "15911 Wood Drive",
    "city": "Channelview",
    "region": "TX",
    "postal_code": "77530",
    "country": "United States",
    "phones": [
      "(713) 633-6800"
    ],
    "emails": [],
    "whatsapp": [],
    "social_links": [],
    "opening_hours": "",
    "materials": [
      "Brass",
      "Aluminum",
      "Lead",
      "Scrap Metal",
      "Steel",
      "Copper",
      "Iron"
    ],
    "material_prices": [],
    "description": "Gold Star Metals offers top scrap metal recycling services in Texas. We provide eco-friendly solutions to streamline operations, reduce waste, and maximize value."
  },
  {
    "name": "A & R Scrap Metal Recycling CompanyScrap Metal Buyer in Dallas",
    "website": "https://www.armetalrecyclers.com/Dallas.html",
    "street_address": "",
    "city": "",
    "region": "",
    "postal_code": "",
    "country": "United States",
    "phones": [
      "(713) 410-8333"
    ],
    "emails": [],
    "whatsapp": [],
    "social_links": [],
    "opening_hours": "",
    "materials": [
      "Scrap Metal"
    ],
    "material_prices": [],
    "description": "A & R Scrap Metal Recycling Company, scrap metal buyer in Dallas, scrap metal recycler, recycle scrap metal, scrap metal prices, scrap buyer, Dallas, TX"
  },
  {
    "name": "Get Paid for Aluminum Metal Recycling at Gulf Coast Scrap Metal",
    "website": "https://www.houstonaluminum.com/",
    "street_address": "4111\n8770 Hempstead Road",
    "city": "Houston",
    "region": "TX",
    "postal_code": "77008",
    "country": "United States",
    "phones": [
      "(713) 868-4111"
    ],
    "emails": [],
    "whatsapp": [],
    "social_links": [],
    "opening_hours": "",
    "materials": [
      "Brass",
      "Aluminum",
      "Lead",
      "Scrap Metal",
      "Steel",
      "Stainless Steel",
      "Copper",
      "Iron"
    ],
    "material_prices": [],
    "description": "Aluminum recycling? Gulf Coast Scrap Metal specializes in scrap aluminum recycling. Call (713) 868-4111 today!"
  },
  {
    "name": "YOUR STEEL AND PIPEPARTNER IN ASSET RECOVERY",
    "website": "https://www.rcsteelandpipe.com/",
    "street_address": "",
    "city": "",
    "region": "",
    "postal_code": "",
    "country": "United States",
    "phones": [],
    "emails": [
      "feinstein713-992-3676taylor@rcsteelandpipe.comconnect",
      "stephen@rcsteelandpipe.com",
      "feinstein713-459-8942stephen@rcsteelandpipe.comconnect"
    ],
    "whatsapp": [],
    "social_links": [],
    "opening_hours": "",
    "materials": [
      "Iron",
      "Steel"
    ],
    "material_prices": [],
    "description": "RC Steel and Pipe, your partner in steel and pipe asset recovery based in Houston, TX"
  },
  {
    "name": "Houston Scrap Metal Removal ~ Texas",
    "website": "https://goloadup.com/houston/scrap-metal-removal/",
    "street_address": "5708 White Magnolia St.",
    "city": "Houston",
    "region": "TX",
    "postal_code": "77091",
    "country": "United States",
    "phones": [
      "(844) 239-7711",
      "(404) 947-6060"
    ],
    "emails": [],
    "whatsapp": [],
    "social_links": [],
    "opening_hours": "Monday – Sunday 8:00 AM – 8:00 PM EST",
    "materials": [
      "Appliance",
      "Lead",
      "Scrap Metal",
      "Electronic",
      "Iron"
    ],
    "material_prices": [],
    "description": "From heavy metal debris to old appliances, we haul it all in Houston, TX. Count on our background-checked team for reliable scrap metal removal and disposal."
  },
  {
    "name": "Ace Scrap Metal Recycling Co.",
    "website": "https://acescrap.com/",
    "street_address": "",
    "city": "",
    "region": "",
    "postal_code": "",
    "country": "United States",
    "phones": [
      "(713) 643-9922"
    ],
    "emails": [],
    "whatsapp": [],
    "social_links": [],
    "opening_hours": "",
    "materials": [
      "Brass",
      "Aluminum",
      "Scrap Metal",
      "Stainless Steel",
      "Copper",
      "Steel"
    ],
    "material_prices": [],
    "description": ""
  },
  {
    "name": "Residential Metal Recycling Services",
    "website": "https://cdscrapmetal.com/residential-metal-recycling/",
    "street_address": "6775 Bingle Road Houst",
    "city": "on",
    "region": "TX",
    "postal_code": "77092",
    "country": "United States",
    "phones": [
      "(832) 743-6500",
      "(281) 524-4458",
      "(832) 786-8687"
    ],
    "emails": [],
    "whatsapp": [],
    "social_links": [],
    "opening_hours": "",
    "materials": [
      "Appliance",
      "Brass",
      "Aluminum",
      "Lead",
      "Scrap Metal",
      "Steel",
      "Stainless Steel",
      "Electronic",
      "Copper",
      "Iron"
    ],
    "material_prices": [],
    "description": "Recycle household appliances, brass fixtures, and more. Enjoy competitive pricing and friendly service at our four Houston locations. View our locations."
  }
]