[
  {
    "name": "Mittag Auto Salvage, Inc.",
    "website": "http://mittagautosalvage.com/",
    "street_address": "8910 East Hardy Street\r\n\t\t\t\t\t\t\t\tHoust",
    "city": "on",
    "region": "TX",
    "postal_code": "77093",
    "country": "United States",
    "phones": [
      "(713) 694-3859",
      "(713) 697-1208"
    ],
    "emails": [
      "mittagmotors@gmail.com"
    ],
    "whatsapp": [],
    "social_links": [],
    "opening_hours": "",
    "materials": [],
    "material_prices": [],
    "description": "Mittag Auto Salvage, Inc."
  },
  {
    "name": "Best Salvage Yards In Houston",
    "website": "https://www.bestinhood.com/houston/auto-services/best-salvage-yards-in-houston/",
    "street_address": "2425 W Mt Houston Rd",
    "city": "Houston",
    "region": "TX",
    "postal_code": "77038",
    "country": "United States",
    "phones": [],
    "emails": [],
    "whatsapp": [],
    "social_links": [],
    "opening_hours": "",
    "materials": [
      "Lead",
      "Auto Parts"
    ],
    "material_prices": [],
    "description": "Uncover the top salvage yards in Houston! From pricing to quality, explore our guide for the best deals on auto parts. Happy hunting!"
  },
  {
    "name": "Junkyards & Auto Salvagein Houston, TX",
    "website": "https://preferredjunkyard.com/texas/houston/",
    "street_address": "900 Aldine Mail Rte Rd",
    "city": "Houston",
    "region": "TX",
    "postal_code": "77037",
    "country": "United States",
    "phones": [],
    "emails": [],
    "whatsapp": [],
    "social_links": [],
    "opening_hours": "",
    "materials": [
      "Iron",
      "Lead",
      "Auto Parts"
    ],
    "material_prices": [],
    "description": "Find Trusted Junkyards and Auto Salvage Yards in Houston, Texas that Buy Junk Cars and Sell Reliable Used Auto and Truck Parts."
  },
  {
    "name": "BigCat Auto Salvage Houston TX",
    "website": "https://autosalvagehouston.com/",
    "street_address": "1010 Aldine Mail Route Rd\r\nHoust",
    "city": "on",
    "region": "TX",
    "postal_code": "77037",
    "country": "United States",
    "phones": [],
    "emails": [],
    "whatsapp": [],
    "social_links": [],
    "opening_hours": "",
    "materials": [],
    "material_prices": [],
    "description": ""
  },
  {
    "name": "Airline Auto Parts | Airline Auto Parts Website",
    "website": "https://airlineautoparts.net/",
    "street_address": "10616 Airline Dr.",
    "city": "Houston",
    "region": "TX",
    "postal_code": "77037",
    "country": "United States",
    "phones": [
      "(281) 448-2000",
      "(281) 447-9607",
      "(800) 989-0090"
    ],
    "emails": [],
    "whatsapp": [],
    "social_links": [],
    "opening_hours": "",
    "materials": [
      "Iron",
      "Auto Parts"
    ],
    "material_prices": [],
    "description": "Find quality used auto parts at Airline Auto Parts in Houston. From engines to transmissions, we help you save money while ensuring longevity and reliability."
  },
  {
    "name": "Recycle HoustonGreater TexasMetal Recycling",
    "website": "https://recyclehouston.com/",
    "street_address": "77587\n\n\n\n\n\t\t\t\tMap of 1211 College Ave\n\t\t\t\tSouth Houst",
    "city": "on",
    "region": "TX",
    "postal_code": "77587-5401",
    "country": "United States",
    "phones": [],
    "emails": [
      "harry@recylehouston.com",
      "mark@recylehouston.com",
      "ruby@recylehouston.com"
    ],
    "whatsapp": [],
    "social_links": [],
    "opening_hours": "",
    "materials": [
      "Aluminum",
      "Copper",
      "Lead",
      "Iron",
      "Brass"
    ],
    "material_prices": [],
    "description": ""
  },
  {
    "name": "DALLAS RECYCLING FACILITY",
    "website": "https://texasrecycling.com/",
    "street_address": "",
    "city": "",
    "region": "TX",
    "postal_code": "75223",
    "country": "United States",
    "phones": [
      "(214) 357-0261",
      "(214) 357-0262"
    ],
    "emails": [],
    "whatsapp": [],
    "social_links": [],
    "opening_hours": "",
    "materials": [
      "Aluminum",
      "Lead",
      "Iron",
      "Scrap Metal",
      "Steel"
    ],
    "material_prices": [],
    "description": "Texas Recycling is a top Dallas recycling facility for commercial paper, newspaper, corrugated cardboard, and industrial metal recycling."
  },
  {
    "name": "Houston Scrap Metal | Scrap Metal Recycling | Sell Metal Scrap | Houston, TX Scrap Yard",
    "website": "https://houstonscrapmetal.com/",
    "street_address": "11801 W Montgomery Road",
    "city": "Houston",
    "region": "TX",
    "postal_code": "77086",
    "country": "United States",
    "phones": [
      "(281) 869-3900"
    ],
    "emails": [],
    "whatsapp": [],
    "social_links": [],
    "opening_hours": "",
    "materials": [
      "Aluminum",
      "Appliance",
      "Electronic",
      "Copper",
      "Stainless Steel",
      "Iron",
      "Scrap Metal",
      "Brass",
      "Steel"
    ],
    "material_prices": [],
    "description": ""
  },
  {
    "name": "Top Prices forScrap Metal",
    "website": "https://houstonmetalrecycling.com/",
    "street_address": "14002 Hempstead HighwayHoust",
    "city": "on",
    "region": "TX",
    "postal_code": "77040",
    "country": "United States",
    "phones": [
      "(713) 690-6777"
    ],
    "emails": [
      "scrap@coastalmetalrecycling.com"
    ],
    "whatsapp": [],
    "social_links": [],
    "opening_hours": "",
    "materials": [
      "Aluminum",
      "Appliance",
      "Copper",
      "Lead",
      "Iron",
      "Scrap Metal",
      "Brass"
    ],
    "material_prices": [],
    "description": "We are Houstonâ€™s leader in metal recycling, offering cash for scrap iron, copper, aluminum, and other metals."
  }
]