[
  {
    "name": "Houston Scrap Metal | Scrap Metal Recycling | Sell Metal Scrap | Houston, TX Scrap Yard",
    "website": "https://houstonscrapmetal.co/",
    "street_address": "11801 W Montgomery Road",
    "city": "Houston",
    "region": "TX",
    "postal_code": "77086",
    "country": "United States",
    "phones": [
      "(281) 869-3900"
    ],
    "emails": [],
    "whatsapp": [],
    "social_links": [],
    "opening_hours": "",
    "materials": [
      "Steel",
      "Scrap Metal",
      "Iron",
      "Brass",
      "Stainless Steel",
      "Copper",
      "Electronic",
      "Appliance",
      "Aluminum"
    ],
    "material_prices": [],
    "description": ""
  },
  {
    "name": "Top Prices forScrap Metal",
    "website": "https://scraphouston.com/",
    "street_address": "14002 Hempstead HighwayHoust",
    "city": "on",
    "region": "TX",
    "postal_code": "77040",
    "country": "United States",
    "phones": [
      "(713) 690-6777"
    ],
    "emails": [
      "scrap@coastalmetalrecycling.com"
    ],
    "whatsapp": [],
    "social_links": [],
    "opening_hours": "",
    "materials": [
      "Scrap Metal",
      "Iron",
      "Brass",
      "Copper",
      "Lead",
      "Appliance",
      "Aluminum"
    ],
    "material_prices": [],
    "description": "We are Houstonâ€™s leader in metal recycling, offering cash for scrap iron, copper, aluminum, and other metals."
  },
  {
    "name": "Recycle HoustonGreater TexasMetal Recycling",
    "website": "https://recyclehouston.com/",
    "street_address": "77587\n\n\n\n\n\t\t\t\tMap of 1211 College Ave\n\t\t\t\tSouth Houst",
    "city": "on",
    "region": "TX",
    "postal_code": "77587-5401",
    "country": "United States",
    "phones": [],
    "emails": [
      "harry@recylehouston.com",
      "ruby@recylehouston.com",
      "info@recylehouston.com"
    ],
    "whatsapp": [],
    "social_links": [],
    "opening_hours": "",
    "materials": [
      "Iron",
      "Brass",
      "Copper",
      "Lead",
      "Aluminum"
    ],
    "material_prices": [],
    "description": ""
  },
  {
    "name": "Gulf Coast Scrap Metal: Houston, Texas Metal Recycling Center",
    "website": "https://houstontexasrecyclingcenter.com/",
    "street_address": "4111\n8770 Hempstead Road",
    "city": "Houston",
    "region": "TX",
    "postal_code": "77008",
    "country": "United States",
    "phones": [
      "(713) 868-4111"
    ],
    "emails": [],
    "whatsapp": [],
    "social_links": [],
    "opening_hours": "",
    "materials": [
      "Steel",
      "Scrap Metal",
      "Iron",
      "Brass",
      "Copper",
      "Lead",
      "Aluminum"
    ],
    "material_prices": [],
    "description": "Gulf Coast Scrap is a metal recycling center located in the heart of Houston, Texas. Call 713-868-4111 to sell your scrap!"
  },
  {
    "name": "CALL US TODAY!(713) 799-9960",
    "website": "https://www.holmesroadrecycling.com/houston-metal-recycling/",
    "street_address": "2820 Holmes Rd\nHoust",
    "city": "on",
    "region": "TX",
    "postal_code": "77051",
    "country": "United States",
    "phones": [],
    "emails": [
      "info@holmesroadrecycling.com"
    ],
    "whatsapp": [],
    "social_links": [],
    "opening_hours": "",
    "materials": [
      "Steel",
      "Scrap Metal",
      "Iron",
      "Stainless Steel",
      "Copper"
    ],
    "material_prices": [],
    "description": "Holmes Road Recycling recycles a variety of scrap metals. We offer all types of scrap metal recycling for Houston, TX residents. Call or come by today."
  },
  {
    "name": "WE GUARANTEE THE HIGHEST PRICES",
    "website": "https://astrocityscrap.com/",
    "street_address": "4530 North Shepherd Houst",
    "city": "on",
    "region": "TX",
    "postal_code": "77018",
    "country": "United States",
    "phones": [],
    "emails": [
      "donbuntin1@gmail.com"
    ],
    "whatsapp": [],
    "social_links": [],
    "opening_hours": "",
    "materials": [
      "Steel",
      "Scrap Metal",
      "Iron",
      "Brass",
      "Stainless Steel",
      "Copper",
      "Aluminum"
    ],
    "material_prices": [],
    "description": "Metal Scrap Yard Near Me Houston | Astro City Scrap Metal. We Want To Buy Your Scrap Metal! Best Price in Houston, TX! Call 713-697-2999."
  },
  {
    "name": "Best Salvage Yards In Houston",
    "website": "https://www.bestinhood.com/houston/auto-services/best-salvage-yards-in-houston/",
    "street_address": "2425 W Mt Houston Rd",
    "city": "Houston",
    "region": "TX",
    "postal_code": "77038",
    "country": "United States",
    "phones": [],
    "emails": [],
    "whatsapp": [],
    "social_links": [],
    "opening_hours": "",
    "materials": [
      "Lead",
      "Auto Parts"
    ],
    "material_prices": [],
    "description": "Uncover the top salvage yards in Houston! From pricing to quality, explore our guide for the best deals on auto parts. Happy hunting!"
  },
  {
    "name": "BigCat Auto Salvage Houston TX",
    "website": "https://autosalvagehouston.com/",
    "street_address": "1010 Aldine Mail Route Rd\r\nHoust",
    "city": "on",
    "region": "TX",
    "postal_code": "77037",
    "country": "United States",
    "phones": [],
    "emails": [],
    "whatsapp": [],
    "social_links": [],
    "opening_hours": "",
    "materials": [],
    "material_prices": [],
    "description": ""
  },
  {
    "name": "Junkyards & Auto Salvagein Houston, TX",
    "website": "https://preferredjunkyard.com/texas/houston/",
    "street_address": "900 Aldine Mail Rte Rd",
    "city": "Houston",
    "region": "TX",
    "postal_code": "77037",
    "country": "United States",
    "phones": [],
    "emails": [],
    "whatsapp": [],
    "social_links": [],
    "opening_hours": "",
    "materials": [
      "Lead",
      "Auto Parts",
      "Iron"
    ],
    "material_prices": [],
    "description": "Find Trusted Junkyards and Auto Salvage Yards in Houston, Texas that Buy Junk Cars and Sell Reliable Used Auto and Truck Parts."
  },
  {
    "name": "Scrap Metal Recycling",
    "website": "https://www.texascoastscrapmetal.com/",
    "street_address": "",
    "city": "",
    "region": "",
    "postal_code": "",
    "country": "United States",
    "phones": [
      "(713) 690-6075"
    ],
    "emails": [
      "craig32d@hotmail.com"
    ],
    "whatsapp": [],
    "social_links": [],
    "opening_hours": "",
    "materials": [
      "Steel",
      "Scrap Metal",
      "Iron",
      "Brass",
      "Stainless Steel",
      "Copper",
      "Lead",
      "Aluminum"
    ],
    "material_prices": [],
    "description": "Texas Coast Scrap Metal has provided scrap metal recycling services to the Houston, TX area for over 30 years. We pay top dollar for your scrap metal."
  },
  {
    "name": "Airline Auto Parts | Airline Auto Parts Website",
    "website": "https://airlineautoparts.net/",
    "street_address": "10616 Airline Dr.",
    "city": "Houston",
    "region": "TX",
    "postal_code": "77037",
    "country": "United States",
    "phones": [
      "(281) 447-9607",
      "(281) 448-2000",
      "(800) 989-0090"
    ],
    "emails": [],
    "whatsapp": [],
    "social_links": [],
    "opening_hours": "",
    "materials": [
      "Auto Parts",
      "Iron"
    ],
    "material_prices": [],
    "description": "Find quality used auto parts at Airline Auto Parts in Houston. From engines to transmissions, we help you save money while ensuring longevity and reliability."
  },
  {
    "name": "Houston,Texas Junkyards & Salvage Yards",
    "website": "https://www.rustysautosalvage.com/texas/houston.html",
    "street_address": "5261   Houston 1601 Townhurst",
    "city": "",
    "region": "DR",
    "postal_code": "77043",
    "country": "United States",
    "phones": [
      "(926) 290-6700",
      "(866) 439-4401"
    ],
    "emails": [],
    "whatsapp": [],
    "social_links": [],
    "opening_hours": "",
    "materials": [],
    "material_prices": [],
    "description": "Our network of Houston Texas junkyards and auto salvage yards will pay you cash for your junk car on the spot and offer free junk car removal in all of Houston TX."
  },
  {
    "name": "Mittag Auto Salvage, Inc.",
    "website": "http://mittagautosalvage.com/",
    "street_address": "8910 East Hardy Street\r\n\t\t\t\t\t\t\t\tHoust",
    "city": "on",
    "region": "TX",
    "postal_code": "77093",
    "country": "United States",
    "phones": [
      "(713) 697-1208",
      "(713) 694-3859"
    ],
    "emails": [
      "mittagmotors@gmail.com"
    ],
    "whatsapp": [],
    "social_links": [],
    "opening_hours": "",
    "materials": [],
    "material_prices": [],
    "description": "Mittag Auto Salvage, Inc."
  },
  {
    "name": "the Ultimate Scrap Showdown!",
    "website": "https://cdscrapmetal.com/",
    "street_address": "6775 Bingle Road Houst",
    "city": "on",
    "region": "TX",
    "postal_code": "77092",
    "country": "United States",
    "phones": [
      "(713) 862-5588",
      "(832) 786-8687",
      "(832) 743-6500"
    ],
    "emails": [],
    "whatsapp": [],
    "social_links": [],
    "opening_hours": "",
    "materials": [
      "Steel",
      "Scrap Metal",
      "Iron",
      "Brass",
      "Stainless Steel",
      "Copper",
      "Lead",
      "Electronic",
      "Appliance",
      "Aluminum"
    ],
    "material_prices": [],
    "description": "Discover scrap metal recycling services at C&D Scrap Metal. We offer competitive pricing and efficient processing for all types of metal waste. Call us today."
  },
  {
    "name": "DALLAS RECYCLING FACILITY",
    "website": "https://texasrecycling.com/",
    "street_address": "",
    "city": "",
    "region": "TX",
    "postal_code": "75223",
    "country": "United States",
    "phones": [
      "(214) 357-0261",
      "(214) 357-0262"
    ],
    "emails": [],
    "whatsapp": [],
    "social_links": [],
    "opening_hours": "",
    "materials": [
      "Steel",
      "Scrap Metal",
      "Iron",
      "Lead",
      "Aluminum"
    ],
    "material_prices": [],
    "description": "Texas Recycling is a top Dallas recycling facility for commercial paper, newspaper, corrugated cardboard, and industrial metal recycling."
  }
]