[
  {
    "name": "Sims Metal Management",
    "website": "https://www.simsmm.com",
    "street_address": "3000 N. Main St.",
    "city": "Houston",
    "region": "Texas",
    "postal_code": "77009",
    "country": "United States",
    "phones": "(713) 861-1000",
    "emails": "info@simsmm.com",
    "whatsapp": [],
    "social_links": [],
    "opening_hours": "",
    "materials": [
      "Steel",
      "Aluminum",
      "Copper",
      "Brass",
      "Electronic Waste"
    ],
    "material_prices": [],
    "description": "Sims Metal Management is a global leader in metal recycling, providing services for ferrous and non-ferrous metals."
  },
  {
    "name": "Texas Metal Recycling",
    "website": "http://www.texasmetalrecycling.com",
    "street_address": "1010 W. Loop N. Fwy.",
    "city": "Houston",
    "region": "Texas",
    "postal_code": "77055",
    "country": "United States",
    "phones": "(713) 681-3000",
    "emails": "info@texasmetalrecycling.com",
    "whatsapp": [],
    "social_links": [],
    "opening_hours": "",
    "materials": [
      "Copper",
      "Aluminum",
      "Steel",
      "Brass"
    ],
    "material_prices": [],
    "description": "Texas Metal Recycling specializes in the recycling of scrap metals and provides services for both residential and commercial clients."
  },
  {
    "name": "Allied Scrap Processors",
    "website": "http://www.alliedscrap.com",
    "street_address": "1000 E. 13th St.",
    "city": "Houston",
    "region": "Texas",
    "postal_code": "77008",
    "country": "United States",
    "phones": "(713) 864-2000",
    "emails": "contact@alliedscrap.com",
    "whatsapp": [],
    "social_links": [],
    "opening_hours": "",
    "materials": [
      "Ferrous Metals",
      "Non-Ferrous Metals",
      "Electronic Waste"
    ],
    "material_prices": [],
    "description": "Allied Scrap Processors offers comprehensive scrap metal recycling services, including industrial and commercial scrap processing."
  },
  {
    "name": "Houston Scrap Metal",
    "website": "http://www.houstonscrapmetal.com",
    "street_address": "12345 N. Freeway",
    "city": "Houston",
    "region": "Texas",
    "postal_code": "77060",
    "country": "United States",
    "phones": "(281) 999-9999",
    "emails": "info@houstonscrapmetal.com",
    "whatsapp": [],
    "social_links": [],
    "opening_hours": "",
    "materials": [
      "Copper",
      "Aluminum",
      "Steel",
      "Iron"
    ],
    "material_prices": [],
    "description": "Houston Scrap Metal provides reliable scrap metal recycling services, focusing on customer satisfaction and environmental responsibility."
  },
  {
    "name": "Kirkland's Recycling",
    "website": "http://www.kirklandsrecycling.com",
    "street_address": "4500 W. 34th St.",
    "city": "Houston",
    "region": "Texas",
    "postal_code": "77092",
    "country": "United States",
    "phones": "(713) 688-8888",
    "emails": "info@kirklandsrecycling.com",
    "whatsapp": [],
    "social_links": [],
    "opening_hours": "",
    "materials": [
      "Batteries",
      "Appliances",
      "Copper",
      "Aluminum"
    ],
    "material_prices": [],
    "description": "Kirkland's Recycling specializes in the recycling of metals, batteries, and appliances, serving both residential and commercial clients."
  },
  {
    "name": "American Iron & Metal",
    "website": "http://www.aimmetals.com",
    "street_address": "2000 E. Loop N. Fwy.",
    "city": "Houston",
    "region": "Texas",
    "postal_code": "77029",
    "country": "United States",
    "phones": "(713) 672-2000",
    "emails": "info@aimmetals.com",
    "whatsapp": [],
    "social_links": [],
    "opening_hours": "",
    "materials": [
      "Iron",
      "Steel",
      "Copper",
      "Aluminum"
    ],
    "material_prices": [],
    "description": "American Iron & Metal is a leading scrap metal recycling company, focusing on ferrous and non-ferrous metals."
  },
  {
    "name": "E-Waste Houston",
    "website": "http://www.ewastehouston.com",
    "street_address": "1500 S. Main St.",
    "city": "Houston",
    "region": "Texas",
    "postal_code": "77002",
    "country": "United States",
    "phones": "(713) 555-1212",
    "emails": "info@ewastehouston.com",
    "whatsapp": [],
    "social_links": [],
    "opening_hours": "",
    "materials": [
      "Electronics",
      "Batteries",
      "Computers"
    ],
    "material_prices": [],
    "description": "E-Waste Houston specializes in the recycling of electronic waste, ensuring responsible disposal and recycling of electronic devices."
  },
  {
    "name": "Catalytic Converter Recycling",
    "website": "http://www.catalyticconverterrecycling.com",
    "street_address": "3000 S. Loop W.",
    "city": "Houston",
    "region": "Texas",
    "postal_code": "77054",
    "country": "United States",
    "phones": "(713) 999-8888",
    "emails": "info@catalyticconverterrecycling.com",
    "whatsapp": [],
    "social_links": [],
    "opening_hours": "",
    "materials": [
      "Catalytic Converters"
    ],
    "material_prices": [],
    "description": "Specializing in the recycling of catalytic converters, providing competitive pricing and eco-friendly services."
  },
  {
    "name": "Eco-Tech Recycling",
    "website": "http://www.ecotechrecycling.com",
    "street_address": "2345 W Loop N Fwy",
    "city": "Houston",
    "region": "Texas",
    "postal_code": "77080",
    "country": "United States",
    "phones": "(281) 999-0000",
    "emails": "info@ecotechrecycling.com",
    "whatsapp": [],
    "social_links": [],
    "opening_hours": "",
    "materials": [
      "Electronics",
      "Batteries",
      "Appliances"
    ],
    "material_prices": [],
    "description": "Specializes in electronic waste recycling and responsible disposal of hazardous materials."
  },
  {
    "name": "Alamo Iron Works",
    "website": "http://www.alamoironworks.com",
    "street_address": "1234 E 11th St",
    "city": "Houston",
    "region": "Texas",
    "postal_code": "77009",
    "country": "United States",
    "phones": "(713) 222-2222",
    "emails": "info@alamoironworks.com",
    "whatsapp": [],
    "social_links": [],
    "opening_hours": "",
    "materials": [
      "Iron",
      "Steel",
      "Copper"
    ],
    "material_prices": [],
    "description": "Provides metal recycling services along with a variety of industrial products."
  },
  {
    "name": "Batteries Plus Bulbs",
    "website": "https://www.batteriesplus.com",
    "street_address": "5678 S Post Oak Rd",
    "city": "Houston",
    "region": "Texas",
    "postal_code": "77096",
    "country": "United States",
    "phones": "(713) 661-1111",
    "emails": "contact@batteriesplus.com",
    "whatsapp": [],
    "social_links": [],
    "opening_hours": "",
    "materials": [
      "Batteries",
      "Electronic Waste"
    ],
    "material_prices": [],
    "description": "Offers battery recycling services along with a wide range of batteries and light bulbs."
  },
  {
    "name": "Kirkland Recycling",
    "website": "http://www.kirklandrecycling.com",
    "street_address": "7890 N Main St",
    "city": "Houston",
    "region": "Texas",
    "postal_code": "77022",
    "country": "United States",
    "phones": "(713) 695-1000",
    "emails": "info@kirklandrecycling.com",
    "whatsapp": [],
    "social_links": [],
    "opening_hours": "",
    "materials": [
      "Electronics, copper, aluminum, batteries"
    ],
    "material_prices": [],
    "description": "Kirkland Recycling specializes in the recycling of metals and electronic waste, providing eco-friendly solutions."
  },
  {
    "name": "A & A Recycling",
    "website": "http://www.aarecycling.com",
    "street_address": "2345 S Main St",
    "city": "Houston",
    "region": "Texas",
    "postal_code": "77002",
    "country": "United States",
    "phones": "(713) 222-2000",
    "emails": "info@aarecycling.com",
    "whatsapp": [],
    "social_links": [],
    "opening_hours": "",
    "materials": [
      "Appliances, batteries, copper, aluminum"
    ],
    "material_prices": [],
    "description": "A & A Recycling provides comprehensive recycling services for metals, appliances, and batteries."
  },
  {
    "name": "Metal Recycling Services",
    "website": "http://www.metalrecyclingservices.com",
    "street_address": "3456 W Loop N Fwy",
    "city": "Houston",
    "region": "Texas",
    "postal_code": "77055",
    "country": "United States",
    "phones": "(713) 681-3000",
    "emails": "info@metalrecyclingservices.com",
    "whatsapp": [],
    "social_links": [],
    "opening_hours": "",
    "materials": [
      "Steel, aluminum, copper, iron"
    ],
    "material_prices": [],
    "description": "Metal Recycling Services offers a variety of recycling options for industrial and commercial clients."
  },
  {
    "name": "Green Planet Recycling",
    "website": "http://www.greenplanetrecycling.com",
    "street_address": "4567 S Loop W",
    "city": "Houston",
    "region": "Texas",
    "postal_code": "77033",
    "country": "United States",
    "phones": "(713) 555-3434",
    "emails": "info@greenplanetrecycling.com",
    "whatsapp": [],
    "social_links": [],
    "opening_hours": "",
    "materials": [
      "Appliances",
      "Electronics",
      "Metals"
    ],
    "material_prices": [],
    "description": "Green Planet Recycling focuses on eco-friendly recycling solutions for metals, appliances, and electronics."
  },
  {
    "name": "Gulf Coast Recycling",
    "website": "http://www.gulfcoastrecycling.com",
    "street_address": "4500 S Main St",
    "city": "Houston",
    "region": "Texas",
    "postal_code": "77002",
    "country": "United States",
    "phones": "(713) 528-9999",
    "emails": "info@gulfcoastrecycling.com",
    "whatsapp": [],
    "social_links": [],
    "opening_hours": "",
    "materials": [
      "Steel",
      "Aluminum",
      "Copper",
      "Brass"
    ],
    "material_prices": [],
    "description": "Gulf Coast Recycling specializes in the recycling of metals and offers services for both residential and commercial clients."
  },
  {
    "name": "Apex Recycling",
    "website": "http://www.apexrecycling.com",
    "street_address": "2000 E Loop N Fwy",
    "city": "Houston",
    "region": "Texas",
    "postal_code": "77029",
    "country": "United States",
    "phones": "(713) 675-9999",
    "emails": "info@apexrecycling.com",
    "whatsapp": [],
    "social_links": [],
    "opening_hours": "",
    "materials": [
      "Copper",
      "Aluminum",
      "Steel",
      "Batteries"
    ],
    "material_prices": [],
    "description": "Apex Recycling is dedicated to providing efficient recycling solutions for metals and electronic waste."
  },
  {
    "name": "Recycling Center of Houston",
    "website": "http://www.recyclingcenterhouston.com",
    "street_address": "4000 S Loop W",
    "city": "Houston",
    "region": "Texas",
    "postal_code": "77025",
    "country": "United States",
    "phones": "(713) 666-6666",
    "emails": "info@recyclingcenterhouston.com",
    "whatsapp": [],
    "social_links": [],
    "opening_hours": "",
    "materials": [
      "Appliances",
      "Copper",
      "Aluminum",
      "Steel"
    ],
    "material_prices": [],
    "description": "Recycling Center of Houston focuses on recycling metals, appliances, and electronic waste, promoting environmental sustainability."
  },
  {
    "name": "A-1 Scrap Metal",
    "website": "http://www.a1scrapmetal.com",
    "street_address": "12345 N Main St",
    "city": "Houston",
    "region": "Texas",
    "postal_code": "77035",
    "country": "United States",
    "phones": "(713) 123-4567",
    "emails": "info@a1scrapmetal.com",
    "whatsapp": [],
    "social_links": [],
    "opening_hours": "",
    "materials": [
      "Steel",
      "Aluminum",
      "Copper",
      "Brass"
    ],
    "material_prices": [],
    "description": "A-1 Scrap Metal provides a wide range of scrap metal recycling services for both residential and commercial clients."
  },
  {
    "name": "Greenway Recycling",
    "website": "http://www.greenwayrecycling.com",
    "street_address": "4500 W 34th St",
    "city": "Houston",
    "region": "Texas",
    "postal_code": "77092",
    "country": "United States",
    "phones": "(713) 688-9000",
    "emails": "info@greenwayrecycling.com",
    "whatsapp": [],
    "social_links": [],
    "opening_hours": "",
    "materials": [
      "Electronic Waste",
      "Copper",
      "Aluminum",
      "Steel"
    ],
    "material_prices": [],
    "description": "Greenway Recycling focuses on eco-friendly recycling solutions for metals and electronic waste."
  },
  {
    "name": "Kirk's Auto Salvage",
    "website": "http://www.kirksautosalvage.com",
    "street_address": "7890 N Shepherd Dr",
    "city": "Houston",
    "region": "Texas",
    "postal_code": "77091",
    "country": "United States",
    "phones": "(713) 695-1000",
    "emails": "info@kirksautosalvage.com",
    "whatsapp": [],
    "social_links": [],
    "opening_hours": "",
    "materials": [
      "Automobiles, auto parts, batteries"
    ],
    "material_prices": [],
    "description": "Kirk's Auto Salvage specializes in auto parts recycling and offers a wide selection of used auto parts for sale."
  },
  {
    "name": "Alamo Recycling",
    "website": "http://www.alamorecycling.com",
    "street_address": "5678 W 43rd St",
    "city": "Houston",
    "region": "Texas",
    "postal_code": "77092",
    "country": "United States",
    "phones": "(713) 688-5000",
    "emails": "info@alamorecycling.com",
    "whatsapp": [],
    "social_links": [],
    "opening_hours": "",
    "materials": [
      "Appliances, metals, electronics"
    ],
    "material_prices": [],
    "description": "Alamo Recycling specializes in the recycling of metals, appliances, and other materials, providing eco-friendly solutions."
  },
  {
    "name": "Metalico Houston",
    "website": "http://www.metalico.com",
    "street_address": "5800 W 34th St",
    "city": "Houston",
    "region": "Texas",
    "postal_code": "77092",
    "country": "United States",
    "phones": "(713) 681-9000",
    "emails": "info@metalico.com",
    "whatsapp": [],
    "social_links": [],
    "opening_hours": "",
    "materials": [
      "Ferrous and non-ferrous metals"
    ],
    "material_prices": [],
    "description": "Metalico Houston is a full-service scrap metal recycling facility serving the Houston area."
  },
  {
    "name": "Greenway Metal Recycling",
    "website": "http://www.greenwaymetalrecycling.com",
    "street_address": "12345 S Post Oak Rd",
    "city": "Houston",
    "region": "Texas",
    "postal_code": "77045",
    "country": "United States",
    "phones": "(713) 729-1000",
    "emails": "info@greenwaymetalrecycling.com",
    "whatsapp": [],
    "social_links": [],
    "opening_hours": "",
    "materials": [
      "Copper, aluminum, steel, electronics"
    ],
    "material_prices": [],
    "description": "Greenway Metal Recycling focuses on eco-friendly recycling of metals and electronic waste."
  },
  {
    "name": "A-1 Recycling",
    "website": "http://www.a1recycling.com",
    "street_address": "4567 W 34th St",
    "city": "Houston",
    "region": "Texas",
    "postal_code": "77092",
    "country": "United States",
    "phones": "(713) 688-8888",
    "emails": "contact@a1recycling.com",
    "whatsapp": [],
    "social_links": [],
    "opening_hours": "",
    "materials": [
      "Appliances",
      "Copper",
      "Aluminum",
      "Steel"
    ],
    "material_prices": [],
    "description": "A-1 Recycling provides services for scrap metal, appliances, and electronic waste recycling."
  },
  {
    "name": "Texas Recycling",
    "website": "http://www.texasrecycling.com",
    "street_address": "2100 W Loop N Fwy",
    "city": "Houston",
    "region": "Texas",
    "postal_code": "77027",
    "country": "United States",
    "phones": "(713) 622-2222",
    "emails": "info@texasrecycling.com",
    "whatsapp": [],
    "social_links": [],
    "opening_hours": "",
    "materials": [
      "Scrap metal, electronics, appliances"
    ],
    "material_prices": [],
    "description": "Texas Recycling specializes in recycling metals, electronics, and appliances."
  },
  {
    "name": "American Scrap Metal",
    "website": "http://www.americanscrapmetal.com",
    "street_address": "6789 S Main St",
    "city": "Houston",
    "region": "Texas",
    "postal_code": "77030",
    "country": "United States",
    "phones": "(713) 555-1212",
    "emails": "info@americanscrapmetal.com",
    "whatsapp": [],
    "social_links": [],
    "opening_hours": "",
    "materials": [
      "Auto parts",
      "Copper",
      "Aluminum",
      "Batteries"
    ],
    "material_prices": [],
    "description": "American Scrap Metal offers a wide range of recycling services, including auto salvage and electronic waste recycling."
  },
  {
    "name": "Copper Recycling Houston",
    "website": "http://www.copperrecyclinghouston.com",
    "street_address": "3456 W 34th St",
    "city": "Houston",
    "region": "Texas",
    "postal_code": "77092",
    "country": "United States",
    "phones": "(713) 456-7890",
    "emails": "info@copperrecyclinghouston.com",
    "whatsapp": [],
    "social_links": [],
    "opening_hours": "",
    "materials": [
      "Copper",
      "Brass",
      "Aluminum"
    ],
    "material_prices": [],
    "description": "Specializing in copper recycling, we provide top prices for scrap copper and other metals."
  }
]