[
  {
    "name": "Best Salvage Yards In Los Angeles",
    "website": "https://www.bestinhood.com/los-angeles/auto-services/best-salvage-yards-in-los-angeles/",
    "street_address": "535 Gallardo St",
    "city": "Los Angeles",
    "region": "CA",
    "postal_code": "90033",
    "country": "United States",
    "phones": [],
    "emails": [],
    "whatsapp": [],
    "social_links": [],
    "opening_hours": "",
    "materials": [
      "Auto Parts",
      "Lead"
    ],
    "material_prices": [],
    "description": "Discover the top salvage yards in Los Angeles! From quality parts to pricing insights, explore our guide for the best automotive deals in the City of Angels."
  },
  {
    "name": "Junkyards & Auto Salvagein Los Angeles, CA",
    "website": "https://preferredjunkyard.com/california/los-angeles/",
    "street_address": "2531 Sawtelle Blvd",
    "city": "Los Angeles",
    "region": "CA",
    "postal_code": "90064",
    "country": "United States",
    "phones": [],
    "emails": [],
    "whatsapp": [],
    "social_links": [],
    "opening_hours": "",
    "materials": [
      "Iron",
      "Auto Parts"
    ],
    "material_prices": [],
    "description": "Find Trusted Junkyards and Auto Salvage Yards in Los Angeles, California that Buy Junk Cars and Sell Reliable Used Auto and Truck Parts."
  },
  {
    "name": "Sun Lite Metals",
    "website": "https://sunlitemetals.com/",
    "street_address": "2210 East 85th Street",
    "city": "Los Angeles",
    "region": "CA",
    "postal_code": "90001",
    "country": "United States",
    "phones": [
      "(323) 581-0806",
      "(323) 581-7772"
    ],
    "emails": [],
    "whatsapp": [],
    "social_links": [],
    "opening_hours": "",
    "materials": [
      "Iron",
      "Stainless Steel",
      "Scrap Metal",
      "Brass",
      "Copper",
      "Steel",
      "Aluminum"
    ],
    "material_prices": [],
    "description": ""
  },
  {
    "name": "IMPORTS LA SALVAGE - Quality Used Auto Parts, T.323-588-6100. Los Angeles, CA",
    "website": "https://importslasalvage.com/",
    "street_address": "6100\n\n\n\n\n\n\n\n\n\n\n\n\n\n\n  \n\n\n\nHome\nAbout\nServices\nOur Inventory\nReach us\n\nContact\n\n\n\n\n\n\n\n\n\n\n\n\n\nOur Inventory\n\n\n\n\n\n\n\n\n\n\n\n\n\n\n\n\n\n\n\n\n\n\nIMPORTS LA SALVAGE\nServing Southern California used auto parts indust",
    "city": "ry a",
    "region": "ND",
    "postal_code": "",
    "country": "United States",
    "phones": [
      "(323) 588-6100"
    ],
    "emails": [
      "importslasalv@gmail.com",
      "number323-588-6100emailimportslasalv@gmail.comopening",
      "emailimportslasalv@gmail.com"
    ],
    "whatsapp": [],
    "social_links": [],
    "opening_hours": "",
    "materials": [
      "Auto Parts"
    ],
    "material_prices": [],
    "description": "Thousands of used auto parts for Honda, Toyota, Nissan, Volkswagen, KIA, Hyundai, Mazda cars near you."
  },
  {
    "name": "Junkyards list inLos Angeles (CA)",
    "website": "https://usjunkyards.com/st-california/cy-los-angeles/",
    "street_address": "970 Reviews\n\n\n3333 Peck Rd",
    "city": "Monrov",
    "region": "IA",
    "postal_code": "",
    "country": "United States",
    "phones": [
      "(888) 853-0481"
    ],
    "emails": [],
    "whatsapp": [],
    "social_links": [],
    "opening_hours": "",
    "materials": [
      "Auto Parts",
      "Scrap Metal"
    ],
    "material_prices": [],
    "description": "This page has compiled the nearest junkyards and auto salvage in Los Angeles County, CA. ⭐ On this page, you can locate the nearest junkyards and salvage yards to find parts for your vehicle or to sell it."
  },
  {
    "name": "Quality Used Engines, Transmissions, Body Panels Parts. Los Angeles, CA",
    "website": "https://abautodismantling.com/",
    "street_address": "90 day warranty. Our elect",
    "city": "ric",
    "region": "AL",
    "postal_code": "",
    "country": "United States",
    "phones": [
      "(323) 221-2400"
    ],
    "emails": [
      "abwreckingyard@gmail.com",
      "emailabwreckingyard@gmail.com",
      "323-221-2400emailabwreckingyard@gmail.comopening"
    ],
    "whatsapp": [],
    "social_links": [],
    "opening_hours": "",
    "materials": [
      "Auto Parts"
    ],
    "material_prices": [],
    "description": "Engines, transmissions, break systems, suspension, electrical, body panels, tires, wheels, fuel systems, AC and Heating"
  },
  {
    "name": "Downtownmetals",
    "website": "http://downtownmetals.com/contact.html",
    "street_address": "526 S Alameda St.",
    "city": "Los Angeles",
    "region": "CA",
    "postal_code": "90013",
    "country": "United States",
    "phones": [],
    "emails": [],
    "whatsapp": [],
    "social_links": [],
    "opening_hours": "",
    "materials": [
      "Aluminum"
    ],
    "material_prices": [],
    "description": "Welcome to Downtown Metals and Recycling Center. We are your local CRV Recycling \nCenter. We Offer Competitive Pricing and  Outstanding Customer Service. \nGive us a call or come by and recycle your aluminum cans and plastic and \nglass bottles."
  },
  {
    "name": "C & M Metals is a provider ofScrap Metal Recycling and Metal Trading Services",
    "website": "https://cmmetals.net/",
    "street_address": "1709 E. 24th St.",
    "city": "Los Angeles",
    "region": "CA",
    "postal_code": "90058",
    "country": "United States",
    "phones": [
      "(323) 234-4662",
      "(323) 234-5844"
    ],
    "emails": [
      "sales@cmmetals.net"
    ],
    "whatsapp": [],
    "social_links": [],
    "opening_hours": "",
    "materials": [
      "Iron",
      "Scrap Metal",
      "Copper",
      "Electronic",
      "Steel",
      "Aluminum"
    ],
    "material_prices": [],
    "description": "C and M Metals has been one of the pioneers in the recycling of secondary metals and scrap metal waste for over 50 years."
  },
  {
    "name": "Metal Recycling Center in Los Angeles",
    "website": "https://www.tmscrapmetals.com/",
    "street_address": "11092 Tuxford St",
    "city": "Sun Valley",
    "region": "CA",
    "postal_code": "91352",
    "country": "United States",
    "phones": [
      "(818) 771-0510"
    ],
    "emails": [
      "771-0510info@tmscrapmetals.comhours"
    ],
    "whatsapp": [],
    "social_links": [],
    "opening_hours": "",
    "materials": [
      "Iron",
      "Stainless Steel",
      "Scrap Metal",
      "Brass",
      "Copper",
      "Electronic",
      "Steel",
      "Aluminum",
      "Lead"
    ],
    "material_prices": [],
    "description": "Metal recycling in L.A. Top prices for copper, brass, stainless steel, aluminum wires, aluminum cans, plastic & glass bottles, and more. (818) 771-0510."
  },
  {
    "name": "SCRAP IRON & NON-FERROUS METALS",
    "website": "https://www.kramermetals.com/",
    "street_address": "1760 E. Slauson Avenue",
    "city": "Los Angeles",
    "region": "CA",
    "postal_code": "90058",
    "country": "United States",
    "phones": [
      "(323) 587-2277"
    ],
    "emails": [],
    "whatsapp": [],
    "social_links": [],
    "opening_hours": "",
    "materials": [
      "Iron",
      "Scrap Metal",
      "Electronic",
      "Steel",
      "Appliance"
    ],
    "material_prices": [],
    "description": ""
  },
  {
    "name": "Metal Recycling Los Angeles",
    "website": "https://www.tmscrapmetals.com/metal-recycling-los-angeles/",
    "street_address": "11092 Tuxford St",
    "city": "Sun Valley",
    "region": "CA",
    "postal_code": "91352",
    "country": "United States",
    "phones": [
      "(818) 771-0510"
    ],
    "emails": [
      "771-0510info@tmscrapmetals.comhours"
    ],
    "whatsapp": [],
    "social_links": [],
    "opening_hours": "",
    "materials": [
      "Iron",
      "Stainless Steel",
      "Scrap Metal",
      "Brass",
      "Copper",
      "Steel",
      "Appliance",
      "Aluminum"
    ],
    "material_prices": [],
    "description": "Metal recycling in Los Angeles, CA. We pay top prices for scrap metal. Need your scrap picked up? We offer mobile recycling and can come to you. Call today!"
  },
  {
    "name": "Scrap Metal Recycling Los Angeles - Smart Recycling Inc.",
    "website": "https://smartrecycling.com/scrap-metal-recycling-los-angeles/",
    "street_address": "414 West C Street",
    "city": "Wilmington",
    "region": "CA",
    "postal_code": "90744",
    "country": "United States",
    "phones": [
      "(310) 834-4861",
      "(310) 830-8277"
    ],
    "emails": [],
    "whatsapp": [],
    "social_links": [],
    "opening_hours": "",
    "materials": [
      "Iron",
      "Scrap Metal",
      "Brass",
      "Copper",
      "Steel",
      "Aluminum",
      "Lead"
    ],
    "material_prices": [],
    "description": "Los Angeles Scrap Metal Recycling"
  },
  {
    "name": "Allied Auto Recycling Yard - Quality Used Parts - We Buy Cars - Riverside, CA",
    "website": "https://www.alliedautosalvage.com/",
    "street_address": "1926 Spruce St.",
    "city": "Riverside",
    "region": "CA",
    "postal_code": "92507",
    "country": "United States",
    "phones": [
      "(877) 784-0057",
      "(951) 784-0057"
    ],
    "emails": [],
    "whatsapp": [],
    "social_links": [],
    "opening_hours": "Store Hours: Mon - Fri 8:00am - 5:00pm",
    "materials": [
      "Auto Parts"
    ],
    "material_prices": [],
    "description": "Allied Auto Recycling Yard - Quality Used Parts - We Buy Cars - Riverside, CA"
  },
  {
    "name": "Our Scrap Yard",
    "website": "https://atlasironandmetal.com/our-scrap-yard/",
    "street_address": "10019 S Alameda Street",
    "city": "Los Angeles",
    "region": "CA",
    "postal_code": "90002",
    "country": "United States",
    "phones": [
      "(800) 540-5184",
      "(323) 566-5184",
      "(566) 518-4800"
    ],
    "emails": [],
    "whatsapp": [],
    "social_links": [],
    "opening_hours": "",
    "materials": [
      "Iron",
      "Copper",
      "Scrap Metal",
      "Steel"
    ],
    "material_prices": [],
    "description": "Atlas Iron & Metal Co., a scrap metal company, provides metal scrap yard recycling services in Los Angeles. Recycle metal, copper, stainless steel & automotive scrap. If you're looking for a great wrecking yard in Los Angeles, look no further than Atlas Iron & Metal Co."
  },
  {
    "name": "Metal Recycling Los Angeles – Atlas Iron & Metal Co.",
    "website": "https://atlasironandmetal.com/metal-recycling-los-angeles/",
    "street_address": "10019 S Alameda Street",
    "city": "Los Angeles",
    "region": "CA",
    "postal_code": "90002",
    "country": "United States",
    "phones": [
      "(800) 540-5184",
      "(323) 566-5184",
      "(566) 518-4800"
    ],
    "emails": [],
    "whatsapp": [],
    "social_links": [],
    "opening_hours": "",
    "materials": [
      "Iron",
      "Stainless Steel",
      "Scrap Metal",
      "Copper",
      "Steel",
      "Appliance",
      "Aluminum"
    ],
    "material_prices": [],
    "description": "Atlas Iron & Metal Company, Inc provides stainless steel scrap yard recycling services in Los Angeles. We buy stainless steel, debris, motors, appliances & automotive scrap for cash."
  },
  {
    "name": "Gallery",
    "website": "https://atlasironandmetal.com/gallery/",
    "street_address": "10019 S Alameda Street",
    "city": "Los Angeles",
    "region": "CA",
    "postal_code": "90002",
    "country": "United States",
    "phones": [
      "(800) 540-5184",
      "(323) 566-5184",
      "(566) 518-4800"
    ],
    "emails": [],
    "whatsapp": [],
    "social_links": [],
    "opening_hours": "",
    "materials": [
      "Iron",
      "Stainless Steel",
      "Scrap Metal",
      "Copper",
      "Steel"
    ],
    "material_prices": [],
    "description": "View an image gallery provided by Atlas Iron & Metal Co. to see scrap yard metal recycling & disposal services in Los Angeles. We buy steel, aluminum, cooper & more."
  },
  {
    "name": "Los Angeles County CountyCalifornia Junkyards & Salvage Yards!",
    "website": "https://www.rustysautosalvage.com/california/los-angeles-county.html",
    "street_address": "2155    Subaru Forest",
    "city": "er  Ye",
    "region": "AR",
    "postal_code": "",
    "country": "United States",
    "phones": [
      "(866) 439-4401"
    ],
    "emails": [],
    "whatsapp": [],
    "social_links": [],
    "opening_hours": "",
    "materials": [],
    "material_prices": [],
    "description": "Our network of Los Angeles County CA junkyards and auto salvage yards will pay you cash for your junk car on the spot and offer free junk car removal in all of Los Angeles County CA."
  },
  {
    "name": "ABOUT ATLAS IRON & METAL CO.",
    "website": "https://atlasironandmetal.com/",
    "street_address": "10019 S Alameda Street",
    "city": "Los Angeles",
    "region": "CA",
    "postal_code": "90002",
    "country": "United States",
    "phones": [
      "(800) 540-5184",
      "(323) 566-5184",
      "(566) 518-4800"
    ],
    "emails": [],
    "whatsapp": [],
    "social_links": [],
    "opening_hours": "",
    "materials": [
      "Iron",
      "Copper",
      "Scrap Metal",
      "Steel"
    ],
    "material_prices": [],
    "description": "Atlas Iron & Metal Co. has been providing the Los Angeles area with scrap metal recycling services since 1949. Our goal is to make it easy and fun to scrap and recycle unwanted metals in Los Angeles, CA."
  },
  {
    "name": "Scrap Metal Recycling and Metal Trading Services",
    "website": "https://www.candmmetalrecyclinglosangeles.com/",
    "street_address": "1709 E 24th St",
    "city": "Los Angeles",
    "region": "CA",
    "postal_code": "90058",
    "country": "United States",
    "phones": [],
    "emails": [
      "sales@cmmetals.net"
    ],
    "whatsapp": [],
    "social_links": [],
    "opening_hours": "",
    "materials": [
      "Scrap Metal"
    ],
    "material_prices": [],
    "description": "We&#x27;re a locally-owned and operated scrap metal recycling company with 3 generations of experience. We&#x2019;re the solution for your scrap metal, paper, and cardboard recycling. We supply dumpster, industrial clean up, and certified tear down services."
  },
  {
    "name": "Auto Recycling Questions",
    "website": "https://westsideautorecycling.com/faq-s",
    "street_address": "",
    "city": "",
    "region": "",
    "postal_code": "",
    "country": "United States",
    "phones": [
      "(800) 586-5869",
      "(310) 473-3221"
    ],
    "emails": [
      "westsideautorecycling@gmail.com"
    ],
    "whatsapp": [],
    "social_links": [],
    "opening_hours": "",
    "materials": [],
    "material_prices": [],
    "description": "At Westside Auto Recycling, we buy running, not running, junk, wrecked, old, or unwanted vehicles. Call 310-473-3221 today."
  },
  {
    "name": "Southern California's premier scrap metal recycling company",
    "website": "https://www.ptmetals.com/",
    "street_address": "38252213 Tyler Ave",
    "city": "South El Monte",
    "region": "CA",
    "postal_code": "91733",
    "country": "United States",
    "phones": [],
    "emails": [
      "91733emailscrap@ptmetals.comhoursmon",
      "scrap@ptmetals.com"
    ],
    "whatsapp": [],
    "social_links": [],
    "opening_hours": "",
    "materials": [
      "Iron",
      "Stainless Steel",
      "Scrap Metal",
      "Brass",
      "Copper",
      "Precious Metals",
      "Electronic",
      "Steel",
      "Aluminum"
    ],
    "material_prices": [],
    "description": "Businesses in Southern CA enjoy tailored recycling solutions with on-site pickups, while residents get fast cash with easy drop-offs at our South El Monte facility."
  },
  {
    "name": "Scrap Stop - Local Metal Recycling Center with the Right Pricing in Los Angeles, CA",
    "website": "https://myscrapstop.com/",
    "street_address": "20749 Prairie St\nChatsworth CA 91311\n\n\n\n\n\n\n\n\n\n\n\n\nHome\nScrap Pricing\nServices\nBlog\nAbout\nContact\n\n\n\n\n\n\n\n\n\n\n\n\n\n\n\n\n\n\n\r\n\t\t\t\t\t\t\tQuote\r\n\t\t\t\t\t\t\n\n\n\n\n\n\n\n\n\n\n\n\n\n\n\n\n\n\n\n\n\r\n\t\t\t\t\t\t\t\t\t\t\t\t\t\t\tMetal Scrap Yard",
    "city": "for profession",
    "region": "AL",
    "postal_code": "",
    "country": "United States",
    "phones": [
      "(323) 657-5984",
      "(818) 734-0266",
      "(866) 617-2727"
    ],
    "emails": [
      "vince@myscrapstop.com"
    ],
    "whatsapp": [],
    "social_links": [],
    "opening_hours": "",
    "materials": [
      "Stainless Steel",
      "Scrap Metal",
      "Brass",
      "Copper",
      "Electronic",
      "Steel",
      "Aluminum"
    ],
    "material_prices": [],
    "description": "Scrap Stop is a licensed scrap yard located in LA County. Services that our recycling center provides are custom fit for businesses with non-ferrous metal scrap. Drop off your scrap at 20749 Prairie St Chatsworth, CA."
  },
  {
    "name": "YOUR PREMIERSCRAP METAL RECYCLING CENTER",
    "website": "https://www.gmrecycling.com/",
    "street_address": "65072301 W 5th Street",
    "city": "Santa Ana",
    "region": "CA",
    "postal_code": "92703",
    "country": "United States",
    "phones": [
      "(323) 722-9995"
    ],
    "emails": [
      "info@gmrecycling.com"
    ],
    "whatsapp": [],
    "social_links": [],
    "opening_hours": "",
    "materials": [
      "Iron",
      "Stainless Steel",
      "Scrap Metal",
      "Brass",
      "Copper",
      "Steel",
      "Aluminum"
    ],
    "material_prices": [],
    "description": "General Metal Recycling Co. in Montebello, CA, has your ferrous and nonferrous metal recycling needs covered. Call us at 323-722-9995 today."
  },
  {
    "name": "Danco Enterprises, Inc.",
    "website": "https://dancometals.com/",
    "street_address": "2252\n\n920 Citrus Street",
    "city": "Riverside",
    "region": "CA",
    "postal_code": "92507",
    "country": "United States",
    "phones": [
      "(909) 598-2252",
      "(909) 598-2230"
    ],
    "emails": [],
    "whatsapp": [],
    "social_links": [],
    "opening_hours": "",
    "materials": [
      "Iron",
      "Stainless Steel",
      "Scrap Metal",
      "Brass",
      "Copper",
      "Steel",
      "Aluminum",
      "Lead"
    ],
    "material_prices": [],
    "description": "Danco Enterprises, Inc. has been servicing the recycling needs of metal producing industries for nearly 20 years."
  },
  {
    "name": "About Atlas Iron & Metal Co. | Metal Scrap Yard | Los Angeles, CA",
    "website": "https://atlasironandmetal.com/about-us/",
    "street_address": "10019 S Alameda Street",
    "city": "Los Angeles",
    "region": "CA",
    "postal_code": "90002",
    "country": "United States",
    "phones": [
      "(800) 540-5184",
      "(323) 566-5184",
      "(566) 518-4800"
    ],
    "emails": [],
    "whatsapp": [],
    "social_links": [],
    "opening_hours": "",
    "materials": [
      "Iron",
      "Copper",
      "Scrap Metal",
      "Steel"
    ],
    "material_prices": [],
    "description": "Atlas Iron & Metal Co. provides metal scrap recycling & disposal in Los Angeles. We buy aluminum, metal, copper, stainless steel, brass, nickel & automotive scrap."
  },
  {
    "name": "Metal Recycling",
    "website": "https://atlasironandmetal.com/metal-recycling/",
    "street_address": "10019 S Alameda Street",
    "city": "Los Angeles",
    "region": "CA",
    "postal_code": "90002",
    "country": "United States",
    "phones": [
      "(800) 540-5184",
      "(323) 566-5184",
      "(566) 518-4800"
    ],
    "emails": [],
    "whatsapp": [],
    "social_links": [],
    "opening_hours": "",
    "materials": [
      "Iron",
      "Scrap Metal",
      "Copper",
      "Steel",
      "Aluminum"
    ],
    "material_prices": [],
    "description": "Atlas Iron & Metal Co., a scrap yard, offers scrap metal recycling near you in Los Angeles. We buy metal, copper, aluminum, iron, stainless steel & automotive scrap for cash."
  },
  {
    "name": "Los Angeles, California Junk Yards",
    "website": "https://www.usedpart.us/used-auto-parts/california/los-angeles/",
    "street_address": "",
    "city": "",
    "region": "",
    "postal_code": "",
    "country": "United States",
    "phones": [
      "(800) 646-4790"
    ],
    "emails": [
      "sales@usedpart.us"
    ],
    "whatsapp": [],
    "social_links": [],
    "opening_hours": "",
    "materials": [
      "Auto Parts",
      "Battery"
    ],
    "material_prices": [],
    "description": "Buy OEM used auto parts from local Los Angeles, California Junk Yards and save thousands of dollars. Our ASE certified techs at Los Angeles, California Junk Yards test and inspect all parts before being sold."
  },
  {
    "name": "SA Recycling Los Angeles Downtown",
    "website": "https://www.sarecycling.com/yard/sa-recycling-los-angeles-downtown/",
    "street_address": "2728 Long Beach Ave",
    "city": "Los Angeles",
    "region": "CA",
    "postal_code": "90058",
    "country": "United States",
    "phones": [
      "(800) 468-7272",
      "(323) 234-1883"
    ],
    "emails": [
      "inquiries.losangeles-downtown@sarecycling.com"
    ],
    "whatsapp": [],
    "social_links": [],
    "opening_hours": "",
    "materials": [
      "Iron",
      "Stainless Steel",
      "Scrap Metal",
      "Brass",
      "Copper",
      "Zinc",
      "Steel",
      "Appliance",
      "Aluminum",
      "Lead"
    ],
    "material_prices": [],
    "description": ""
  },
  {
    "name": "Top 5 Scrap Metal Recycling in Los Angeles",
    "website": "https://generated.com/scrap-metal-recycling-los-angeles/",
    "street_address": "",
    "city": "",
    "region": "",
    "postal_code": "",
    "country": "United States",
    "phones": [
      "(602) 353-9411"
    ],
    "emails": [
      "informationinfo@generated.com",
      "info@generated.com",
      "dispatch@generated.com"
    ],
    "whatsapp": [],
    "social_links": [],
    "opening_hours": "",
    "materials": [
      "Iron",
      "Aluminum",
      "Scrap Metal",
      "Steel"
    ],
    "material_prices": [],
    "description": "In 2017, the scrap metal recycling industry in the United States reached a total value of over $45 billion. This combined worth takes into account the two"
  },
  {
    "name": "Bins and Containers",
    "website": "https://atlasironandmetal.com/bins-and-containers/",
    "street_address": "10019 S Alameda Street",
    "city": "Los Angeles",
    "region": "CA",
    "postal_code": "90002",
    "country": "United States",
    "phones": [
      "(800) 540-5184",
      "(323) 566-5184",
      "(566) 518-4800"
    ],
    "emails": [],
    "whatsapp": [],
    "social_links": [],
    "opening_hours": "",
    "materials": [
      "Iron",
      "Scrap Metal",
      "Copper",
      "Steel",
      "Appliance"
    ],
    "material_prices": [],
    "description": "Atlas Iron & Metal Co. provides bin & container services for recycling scrap metal in Los Angeles. Recycle debris, metal, copper, stainless steel & automotive scrap."
  },
  {
    "name": "Westside Auto Recycling!",
    "website": "https://www.westsideautorecycling.com/",
    "street_address": "",
    "city": "",
    "region": "",
    "postal_code": "",
    "country": "United States",
    "phones": [
      "(800) 586-5869",
      "(310) 473-3221"
    ],
    "emails": [
      "westsideautorecycling@gmail.com"
    ],
    "whatsapp": [],
    "social_links": [],
    "opening_hours": "",
    "materials": [],
    "material_prices": [],
    "description": "At Westside Auto Recycling, we have over 25 years of experience. We pay top dollar for your cars, trucks, vans, and SUV's. Call 310-473-3221 today."
  },
  {
    "name": "All Japanese Auto Parts inEast Los Angeles (CA)",
    "website": "https://usjunkyards.com/st-california/cy-los-angeles/ci-east-los-angeles/yd-19908-all-japanese-auto-parts/",
    "street_address": "2018\n\t\t\t\t\t\t\t\t\t\t\t\n\n\n\n\n\n\n\n\n\n \nAdr",
    "city": "ian Di",
    "region": "AZ",
    "postal_code": "",
    "country": "United States",
    "phones": [
      "(323) 564-7900",
      "(888) 853-0481"
    ],
    "emails": [],
    "whatsapp": [],
    "social_links": [],
    "opening_hours": "",
    "materials": [
      "Iron",
      "Auto Parts",
      "Scrap Metal"
    ],
    "material_prices": [],
    "description": "All Japanese Auto Parts is located in the city of East Los Angeles, CA  ᐉ Contact information, reviews, photos, and opening hours are on our USJunkYards salvage yard database."
  },
  {
    "name": "Los Angeles,California Junkyards & Salvage Yards",
    "website": "https://www.rustysautosalvage.com/california/los-angeles.html",
    "street_address": "",
    "city": "",
    "region": "",
    "postal_code": "",
    "country": "United States",
    "phones": [
      "(866) 439-4401",
      "(206) 237-8448"
    ],
    "emails": [],
    "whatsapp": [],
    "social_links": [],
    "opening_hours": "",
    "materials": [
      "Scrap Metal"
    ],
    "material_prices": [],
    "description": "Our network of Los Angeles California junkyards and auto salvage yards will pay you cash for your junk car on the spot and offer free junk car removal in all of Los Angeles CA."
  },
  {
    "name": "Industries",
    "website": "https://atlasironandmetal.com/industries/",
    "street_address": "10019 S Alameda Street",
    "city": "Los Angeles",
    "region": "CA",
    "postal_code": "90002",
    "country": "United States",
    "phones": [
      "(800) 540-5184",
      "(323) 566-5184",
      "(566) 518-4800"
    ],
    "emails": [],
    "whatsapp": [],
    "social_links": [],
    "opening_hours": "",
    "materials": [
      "Iron",
      "Scrap Metal",
      "Brass",
      "Copper",
      "Electronic",
      "Steel",
      "Aluminum"
    ],
    "material_prices": [],
    "description": "Atlas Iron & Metal Co. provides metal scrap yard recycling services in Los Angeles to industries. Recycle wiring, metal, copper, stainless steel & automotive parts."
  },
  {
    "name": "union central metal | Sell Scrap Metal | 2203 S Alameda St, Los Angeles, CA 90058, USA",
    "website": "https://www.unioncentralmetal.com/",
    "street_address": "2203 S Alameda St",
    "city": "Los Angeles",
    "region": "CA",
    "postal_code": "90058",
    "country": "United States",
    "phones": [
      "(213) 677-2401"
    ],
    "emails": [
      "unioncentralmetal@gmail.com"
    ],
    "whatsapp": [],
    "social_links": [],
    "opening_hours": "",
    "materials": [
      "Iron",
      "Stainless Steel",
      "Scrap Metal",
      "Brass",
      "Copper",
      "Zinc",
      "Steel",
      "Aluminum"
    ],
    "material_prices": [],
    "description": "Union Central Metal is a Family-owned Recycling and Scrap yard serving Los Angeles for 30 years! We buy ferrous and non-ferrous metal at fair prices with top-notch customer service. Visit us at 2203 S Alameda St, Los Angeles, CA 90058."
  },
  {
    "name": "Services",
    "website": "https://atlasironandmetal.com/services/",
    "street_address": "10019 S Alameda Street",
    "city": "Los Angeles",
    "region": "CA",
    "postal_code": "90002",
    "country": "United States",
    "phones": [
      "(800) 540-5184",
      "(323) 566-5184",
      "(566) 518-4800"
    ],
    "emails": [],
    "whatsapp": [],
    "social_links": [],
    "opening_hours": "",
    "materials": [
      "Iron",
      "Scrap Metal",
      "Copper",
      "Steel",
      "Aluminum"
    ],
    "material_prices": [],
    "description": "Atlas Iron & Metal Co., a scrapyard, provides metal scrap yard recycling services in Los Angeles. Recycle aluminum, metal, copper, stainless steel & automotive scrap."
  },
  {
    "name": "SA Recycling Los Angeles 15th St",
    "website": "https://www.sarecycling.com/yard/sa-recycling-los-angeles-15th-st/",
    "street_address": "2104 E 15th St",
    "city": "Los Angeles",
    "region": "CA",
    "postal_code": "90021",
    "country": "United States",
    "phones": [
      "(800) 468-7272",
      "(213) 747-4281"
    ],
    "emails": [
      "inquiries.losangeles-15th@sarecycling.com"
    ],
    "whatsapp": [],
    "social_links": [],
    "opening_hours": "",
    "materials": [
      "Iron",
      "Stainless Steel",
      "Scrap Metal",
      "Brass",
      "Copper",
      "Zinc",
      "Steel",
      "Appliance",
      "Aluminum",
      "Lead"
    ],
    "material_prices": [],
    "description": ""
  },
  {
    "name": "Where to Recycle Scrap Metal in Los Angeles",
    "website": "https://www.ptmetals.com/blog/where-to-recycle-scrap-metals-los-angeles/",
    "street_address": "38252213 Tyler Ave",
    "city": "South El Monte",
    "region": "CA",
    "postal_code": "91733",
    "country": "United States",
    "phones": [],
    "emails": [
      "91733emailscrap@ptmetals.comhoursmon",
      "scrap@ptmetals.com"
    ],
    "whatsapp": [],
    "social_links": [],
    "opening_hours": "",
    "materials": [
      "Iron",
      "Stainless Steel",
      "Scrap Metal",
      "Brass",
      "Copper",
      "Auto Parts",
      "Precious Metals",
      "Electronic",
      "Steel",
      "Appliance"
    ],
    "material_prices": [],
    "description": "The best places to recycle scrap metal in Los Angeles include P&T Metals in South El Monte, SA Recycling with multiple locations, TM Scrap Metals in Sun"
  },
  {
    "name": "Los Angeles, CA Scrap Metal Prices",
    "website": "https://www.priceofscrapmetals.com/california/los-angeles/",
    "street_address": "2777 East Washington Blvd",
    "city": "and centr",
    "region": "AL",
    "postal_code": "",
    "country": "United States",
    "phones": [],
    "emails": [],
    "whatsapp": [],
    "social_links": [],
    "opening_hours": "",
    "materials": [
      "Iron",
      "Stainless Steel",
      "Scrap Metal",
      "Brass",
      "Copper",
      "Zinc",
      "Precious Metals",
      "Electronic",
      "Steel",
      "Aluminum"
    ],
    "material_prices": [],
    "description": "Find the Latest Scrap Metal Prices in Los Angeles, California today. Check the current scrap price for copper, steel, aluminum, brass, gold and other ferrous and non-ferrous materials."
  },
  {
    "name": "Auto Salvage | Inglewood | Pico Rivera | Norwalk | 323-583-1094",
    "website": "https://upickpartsla.com/find-used-auto-parts.html",
    "street_address": "1094 \n\n\n\n\n\n\n\n\n\n\n\n\n\n\n\n\n\n\n\n\n\n\n\n\n\n\n\n\n\n\n\n\n\n\n\n\n\n\n\n\n323-583-1094\n\n\n\n\n\n\n\n\nToggle navigation\n\n\n\nHOME\nWE BUY JUNK CARS\nGALLERY\nSEARCH INVENTORY\nABOUT\nCONTACT\n\n\n\n\n\n\nSEARCH OUR INVENTORY\n\n\n \n\n\n\n\n\n\n\n\n\n\n       8103 South Alameda Street",
    "city": "Los Angeles",
    "region": "CA",
    "postal_code": "90001-4108",
    "country": "United States",
    "phones": [
      "(323) 583-1094"
    ],
    "emails": [],
    "whatsapp": [],
    "social_links": [],
    "opening_hours": "",
    "materials": [],
    "material_prices": [],
    "description": "Pick your part at our auto salvage yard and save serving Compton, Downey, Inglewood and beyond in Southern CA."
  },
  {
    "name": "Los Angeles Scrap Yards, CA",
    "website": "https://iscrapapp.com/scrap-yards/los-angeles-ca/",
    "street_address": "75\nFire Wire\nForktruck Battery\nFSX 414\nFuses\nGold\nHard Drive Boards\nHard Drives\nHard Drives without Boards\nHastelloy Solids\nHastelloy Turnings\nHeliax Wire\nHigh Speed Steel\nHousewire\nIncomplete Car\nInconel\nInconel 792\nInconel 800\nInconel 825\nInk Cartridges\nInsulated Aluminum Wire\nInsulated Copper Cable\nInsulated Copper Wire\nInsulated Steel BX\nInvar\nJunkshop Extrusion\nKeyboard",
    "city": "s\nKov",
    "region": "AR",
    "postal_code": "",
    "country": "United States",
    "phones": [],
    "emails": [],
    "whatsapp": [],
    "social_links": [],
    "opening_hours": "",
    "materials": [
      "Iron",
      "Stainless Steel",
      "Scrap Metal",
      "Brass",
      "Copper",
      "Battery",
      "Zinc",
      "Steel",
      "Appliance",
      "Catalytic Converter"
    ],
    "material_prices": [],
    "description": "Quickly locate Los Angeles scrap yards and scrap metal buyers in the area plus get access to their phone number, email address, up to the minute pricing even request a container with the iScrap App"
  },
  {
    "name": "Scrap Metal Buying in Los Angeles and San Diego",
    "website": "https://www.ekcometals.com/",
    "street_address": "2846 Commercial St",
    "city": "San Diego",
    "region": "CA",
    "postal_code": "92113",
    "country": "United States",
    "phones": [
      "(619) 756-6696",
      "(323) 264-1615"
    ],
    "emails": [],
    "whatsapp": [],
    "social_links": [],
    "opening_hours": "",
    "materials": [
      "Iron",
      "Scrap Metal",
      "Brass",
      "Copper",
      "Steel",
      "Aluminum"
    ],
    "material_prices": [],
    "description": "With locations in Los Angeles and San Diego, Ekco Metals is a trusted scrap yard offering processing and recycling of ferrous and non-ferrous metals."
  },
  {
    "name": "Metal Recycling in Los Angeles",
    "website": "https://www.industrialscrapmetal.com/california/los-angeles-metal-recycling/",
    "street_address": "86 million residents as of 2022. It is the third-most visited city in the U.S. with over 4.6 million visitors as of 2019.The area that became Los Angeles was originally inhabited by the indigenous Tongva peopl",
    "city": "e a",
    "region": "ND",
    "postal_code": "",
    "country": "United States",
    "phones": [],
    "emails": [
      "billy@warank.com"
    ],
    "whatsapp": [],
    "social_links": [],
    "opening_hours": "",
    "materials": [
      "Iron",
      "Scrap Metal",
      "Brass",
      "Copper",
      "Battery",
      "Zinc",
      "Steel",
      "Aluminum",
      "Lead"
    ],
    "material_prices": [],
    "description": "Metal Recycling in Los Angeles, CA by Industrial Scrap Metal Recycling company. We recycle all types of metal like Alloy Steel, Aluminum, Appliances recycling, Automobile Batteries, and Brass in Los Angeles, CA, etc."
  },
  {
    "name": "Los Angeles Scrap Metal Buyers & Recycling Centers",
    "website": "https://scrapvisor.com/california/los-angeles/",
    "street_address": "0\n\n\n\n\n\n\n\n\nSmart Recycling\n414 W C St",
    "city": "Los Angeles",
    "region": "CA",
    "postal_code": "90744",
    "country": "United States",
    "phones": [
      "(323) 234-4662",
      "(323) 778-0058",
      "(888) 608-5203"
    ],
    "emails": [],
    "whatsapp": [],
    "social_links": [],
    "opening_hours": "",
    "materials": [
      "Iron",
      "Stainless Steel",
      "Scrap Metal",
      "Brass",
      "Copper",
      "Zinc",
      "Steel",
      "Aluminum",
      "Lead"
    ],
    "material_prices": [],
    "description": "Find trusted scrap metal buyers and recycling centers in Los Angeles. View up-to-date scrap metal prices, explore our interactive map of local scrap yards, and connect with reputable companies for fast and profitable scrap sales."
  },
  {
    "name": "SA Recycling Los Angeles South Alameda",
    "website": "https://www.sarecycling.com/yard/sa-recycling-los-angeles-south-alameda/",
    "street_address": "10313 Alameda St",
    "city": "Los Angeles",
    "region": "CA",
    "postal_code": "90002",
    "country": "United States",
    "phones": [
      "(800) 468-7272",
      "(323) 564-5601"
    ],
    "emails": [
      "inquiries.carson-southalameda@sarecycling.com"
    ],
    "whatsapp": [],
    "social_links": [],
    "opening_hours": "",
    "materials": [
      "Iron",
      "Stainless Steel",
      "Scrap Metal",
      "Brass",
      "Copper",
      "Zinc",
      "Steel",
      "Appliance",
      "Aluminum",
      "Lead"
    ],
    "material_prices": [],
    "description": ""
  }
]