[
  {
    "name": "Hours of Operation (CST/CDT)",
    "website": "http://www.apacheautoparts.com/",
    "street_address": "10702 Cullen Blvd",
    "city": "Houston",
    "region": "TX",
    "postal_code": "77047",
    "country": "United States",
    "phones": [
      "(713) 731-4101",
      "(713) 731-4100",
      "(877) 412-3700"
    ],
    "emails": [
      "info@apacheautoparts.com"
    ],
    "whatsapp": [],
    "social_links": [],
    "opening_hours": "",
    "materials": [
      "Auto Parts"
    ],
    "material_prices": [],
    "description": "Apache Auto Parts: serving the Houston, TX area with quality used parts"
  },
  {
    "name": "Metal Recycling That MovesPeople, Planet & Profit Forward",
    "website": "https://southpostoakrecycling.com/",
    "street_address": "",
    "city": "",
    "region": "",
    "postal_code": "",
    "country": "United States",
    "phones": [
      "(713) 433-9944"
    ],
    "emails": [
      "info@southpostoakrecycling.com"
    ],
    "whatsapp": [],
    "social_links": [],
    "opening_hours": "",
    "materials": [
      "Copper",
      "Scrap Metal",
      "Appliance",
      "Aluminum"
    ],
    "material_prices": [],
    "description": "Looking for a trusted Houston Scrap Metal Recycling Center? SPORC offers top dollar for copper, aluminum, steel, & more. Fast, fair payouts—call or visit today!"
  },
  {
    "name": "WE AREIRONMAN",
    "website": "https://www.theironman.biz/",
    "street_address": "1919 Goodyear Dr",
    "city": "Houston",
    "region": "TX",
    "postal_code": "77017",
    "country": "United States",
    "phones": [],
    "emails": [
      "scrap@theironman.biz"
    ],
    "whatsapp": [],
    "social_links": [],
    "opening_hours": "",
    "materials": [
      "Scrap Metal",
      "Iron"
    ],
    "material_prices": [],
    "description": "Ironman Recycling offers our customers services for a wide array of materials including steel and iron scrap, aluminum and copper scrap recycling, and more.  As a ferrous metal buyer, we offer the best scrap prices in the area and are passionate about helping to maintain a healthy environment!"
  },
  {
    "name": "European and Japanese Used Auto Parts",
    "website": "https://www.lonestarautoparts.com/",
    "street_address": "6621 Liberty Road",
    "city": "Houston",
    "region": "TX",
    "postal_code": "77028",
    "country": "United States",
    "phones": [
      "(713) 785-5151",
      "(800) 919-5151"
    ],
    "emails": [],
    "whatsapp": [],
    "social_links": [],
    "opening_hours": "",
    "materials": [
      "Lead",
      "Auto Parts",
      "Electronic",
      "Iron"
    ],
    "material_prices": [],
    "description": "Discover top-quality OEM auto parts for luxury and sports cars. Lonestar Imports in Houston, TX, can be reached at 713-785-5151."
  },
  {
    "name": "Scott Street Auto Parts",
    "website": "https://scottstreetauto.com/",
    "street_address": "7115 Scott Street Houst",
    "city": "on",
    "region": "TX",
    "postal_code": "77021",
    "country": "United States",
    "phones": [],
    "emails": [],
    "whatsapp": [],
    "social_links": [],
    "opening_hours": "",
    "materials": [
      "Auto Parts"
    ],
    "material_prices": [],
    "description": "Used and New Auto Parts, Used Light Truck Parts, Foreign and Domestic Auto Parts. Call Scotts Street Auto Parts at 713-747-0210."
  },
  {
    "name": "WE GUARANTEE THE HIGHEST PRICES",
    "website": "https://astrocityscrap.com/",
    "street_address": "4530 North Shepherd Houst",
    "city": "on",
    "region": "TX",
    "postal_code": "77018",
    "country": "United States",
    "phones": [],
    "emails": [
      "donbuntin1@gmail.com"
    ],
    "whatsapp": [],
    "social_links": [],
    "opening_hours": "",
    "materials": [
      "Steel",
      "Aluminum",
      "Stainless Steel",
      "Copper",
      "Scrap Metal",
      "Iron",
      "Brass"
    ],
    "material_prices": [],
    "description": "Metal Scrap Yard Near Me Houston | Astro City Scrap Metal. We Want To Buy Your Scrap Metal! Best Price in Houston, TX! Call 713-697-2999."
  },
  {
    "name": "Houston Scrap Metal Recycling",
    "website": "https://www.gulfcoastscrapmetal.com/",
    "street_address": "8770 Hempstead Rd Houst",
    "city": "on",
    "region": "TX",
    "postal_code": "77008",
    "country": "United States",
    "phones": [
      "(713) 868-4111"
    ],
    "emails": [
      "gulfcoastscrapmetal@yahoo.com",
      "gulfcoastscrapmetal@yahoo.comserving"
    ],
    "whatsapp": [],
    "social_links": [],
    "opening_hours": "",
    "materials": [
      "Steel",
      "Aluminum",
      "Copper",
      "Scrap Metal",
      "Electronic",
      "Brass"
    ],
    "material_prices": [],
    "description": "Recycle industrial scrap metal with Gulf Coast Scrap Metal. Offering container services, job site pick-up, and top prices in Houston. Call 713-868-4111 today!"
  },
  {
    "name": "Baseball and Softball Tournaments and Leagues - The Woodlands, TX - Scrap Yard Sports",
    "website": "https://scrapyardsports.com/",
    "street_address": "29607 Robinson Rd",
    "city": "Conroe",
    "region": "TX",
    "postal_code": "77385",
    "country": "United States",
    "phones": [],
    "emails": [],
    "whatsapp": [],
    "social_links": [],
    "opening_hours": "",
    "materials": [],
    "material_prices": [],
    "description": "Scrap Yard Sports near The Woodlands, Texas features baseball and softball tournament and league facilities with 20 fields and premier amenities serving the Houston area."
  },
  {
    "name": "Trust Auto Parts Online Store – Trust Auto Parts LLC",
    "website": "https://trustautopartshtx.com/",
    "street_address": "",
    "city": "",
    "region": "",
    "postal_code": "",
    "country": "United States",
    "phones": [
      "(281) 448-1212"
    ],
    "emails": [
      "trustautohtx@gmail.comvisit"
    ],
    "whatsapp": [],
    "social_links": [],
    "opening_hours": "",
    "materials": [
      "Auto Parts"
    ],
    "material_prices": [],
    "description": "Trust Auto Parts is a automotive recycling company based in Houston, Texas. We are dedicated to providing customers with the highest quality recycled auto parts at amazing prices!"
  },
  {
    "name": "Best Salvage Yards In Houston",
    "website": "https://www.bestinhood.com/houston/auto-services/best-salvage-yards-in-houston/",
    "street_address": "2425 W Mt Houston Rd",
    "city": "Houston",
    "region": "TX",
    "postal_code": "77038",
    "country": "United States",
    "phones": [],
    "emails": [],
    "whatsapp": [],
    "social_links": [],
    "opening_hours": "",
    "materials": [
      "Lead",
      "Auto Parts"
    ],
    "material_prices": [],
    "description": "Uncover the top salvage yards in Houston! From pricing to quality, explore our guide for the best deals on auto parts. Happy hunting!"
  },
  {
    "name": "CALL US TODAY!(713) 799-9960",
    "website": "https://www.holmesroadrecycling.com/",
    "street_address": "2820 Holmes Rd\nHoust",
    "city": "on",
    "region": "TX",
    "postal_code": "77051",
    "country": "United States",
    "phones": [],
    "emails": [
      "info@holmesroadrecycling.com"
    ],
    "whatsapp": [],
    "social_links": [],
    "opening_hours": "",
    "materials": [
      "Scrap Metal"
    ],
    "material_prices": [],
    "description": "Holmes Road Recycling can handle all of your Houston Metal Recycling. Turn your Scrap Metal into Cash. Our Houston Scrap Metal Recycling Center is conveniently located."
  },
  {
    "name": "Houston Auto Recyclers",
    "website": "https://www.houstonautorecyclers.com/",
    "street_address": "",
    "city": "",
    "region": "",
    "postal_code": "",
    "country": "United States",
    "phones": [
      "(281) 260-8080"
    ],
    "emails": [],
    "whatsapp": [],
    "social_links": [],
    "opening_hours": "",
    "materials": [],
    "material_prices": [],
    "description": ""
  },
  {
    "name": "Now available Hella OEM lights for European automobiles.",
    "website": "http://www.propartscenter.com/",
    "street_address": "2525 FAIRWAY PARK\nHOUST",
    "city": "ON",
    "region": "TX",
    "postal_code": "77092",
    "country": "United States",
    "phones": [
      "(713) 681-8280"
    ],
    "emails": [],
    "whatsapp": [],
    "social_links": [],
    "opening_hours": "",
    "materials": [
      "Auto Parts"
    ],
    "material_prices": [],
    "description": ""
  },
  {
    "name": "​Bronco Auto & Truck Salvage",
    "website": "http://www.broncosalvage.com/",
    "street_address": "900 Aldine Mail Rd Houst",
    "city": "on",
    "region": "TX",
    "postal_code": "77037",
    "country": "United States",
    "phones": [
      "(281) 448-2792"
    ],
    "emails": [],
    "whatsapp": [],
    "social_links": [],
    "opening_hours": "",
    "materials": [
      "Iron"
    ],
    "material_prices": [],
    "description": ""
  },
  {
    "name": "Recycling in Houston - what to know and where to go",
    "website": "https://www.fox26houston.com/the-news-edge/recycling-in-houston-what-to-know-and-where-to-go",
    "street_address": "2240 Central St",
    "city": "re",
    "region": "ET",
    "postal_code": "77017",
    "country": "United States",
    "phones": [],
    "emails": [
      "fox26houstonnews@foxtv.com"
    ],
    "whatsapp": [],
    "social_links": [],
    "opening_hours": "",
    "materials": [
      "Electronic",
      "Iron"
    ],
    "material_prices": [],
    "description": "Information about recycling in Houston"
  },
  {
    "name": "Houston",
    "website": "https://www.cmcrecycling.com/locations/houston",
    "street_address": "6565 N. MacArthur Blvd.Suite 800",
    "city": "Irving",
    "region": "TX",
    "postal_code": "75039",
    "country": "United States",
    "phones": [
      "(281) 668-6378",
      "(214) 689-4300",
      "(713) 226-0100"
    ],
    "emails": [],
    "whatsapp": [],
    "social_links": [],
    "opening_hours": "",
    "materials": [
      "Steel",
      "Aluminum",
      "Stainless Steel",
      "Copper",
      "Scrap Metal",
      "Electronic",
      "Lead",
      "Iron",
      "Brass"
    ],
    "material_prices": [],
    "description": ""
  },
  {
    "name": "Gulf Coast Scrap Metal: Houston, Texas Metal Recycling Center",
    "website": "https://houstontexasrecyclingcenter.com/",
    "street_address": "4111\n8770 Hempstead Road",
    "city": "Houston",
    "region": "TX",
    "postal_code": "77008",
    "country": "United States",
    "phones": [
      "(713) 868-4111"
    ],
    "emails": [],
    "whatsapp": [],
    "social_links": [],
    "opening_hours": "",
    "materials": [
      "Steel",
      "Aluminum",
      "Copper",
      "Scrap Metal",
      "Lead",
      "Iron",
      "Brass"
    ],
    "material_prices": [],
    "description": "Gulf Coast Scrap is a metal recycling center located in the heart of Houston, Texas. Call 713-868-4111 to sell your scrap!"
  },
  {
    "name": "Houston Scrap Metal | Scrap Metal Recycling | Sell Metal Scrap | Houston, TX Scrap Yard",
    "website": "https://houstonscrapmetal.co/",
    "street_address": "11801 W Montgomery Road",
    "city": "Houston",
    "region": "TX",
    "postal_code": "77086",
    "country": "United States",
    "phones": [
      "(281) 869-3900"
    ],
    "emails": [],
    "whatsapp": [],
    "social_links": [],
    "opening_hours": "",
    "materials": [
      "Steel",
      "Appliance",
      "Aluminum",
      "Stainless Steel",
      "Copper",
      "Scrap Metal",
      "Electronic",
      "Iron",
      "Brass"
    ],
    "material_prices": [],
    "description": ""
  },
  {
    "name": "Houston Scrap Yard - Gulf Coast Scrap Metal",
    "website": "https://www.houstonscrapyard.com/",
    "street_address": "4111\n8770 Hempstead Road",
    "city": "Houston",
    "region": "TX",
    "postal_code": "77008",
    "country": "United States",
    "phones": [
      "(713) 868-4111"
    ],
    "emails": [],
    "whatsapp": [],
    "social_links": [],
    "opening_hours": "",
    "materials": [
      "Steel",
      "Copper",
      "Scrap Metal",
      "Lead",
      "Iron",
      "Brass"
    ],
    "material_prices": [],
    "description": "For the best prices on Houston scrap metal, bring your metal to our Houston recycling yard or call 713-868-4111."
  },
  {
    "name": "Houston Metals – Top Service. Best Prices",
    "website": "https://houmetals.com/",
    "street_address": "3919 Pinemont Dr.",
    "city": "Houston",
    "region": "TX",
    "postal_code": "77018",
    "country": "United States",
    "phones": [
      "(281) 888-5658"
    ],
    "emails": [],
    "whatsapp": [],
    "social_links": [],
    "opening_hours": "",
    "materials": [
      "Copper",
      "Scrap Metal",
      "Iron"
    ],
    "material_prices": [],
    "description": ""
  },
  {
    "name": "D&D Scrap Metal | D&D Scrap Metal",
    "website": "https://dndscrapmetal.com/",
    "street_address": "",
    "city": "",
    "region": "",
    "postal_code": "",
    "country": "United States",
    "phones": [
      "(832) 530-4333",
      "(001) 234-5678"
    ],
    "emails": [],
    "whatsapp": [],
    "social_links": [],
    "opening_hours": "",
    "materials": [
      "Steel",
      "Aluminum",
      "Copper",
      "Scrap Metal",
      "Lead",
      "Brass"
    ],
    "material_prices": [],
    "description": ""
  },
  {
    "name": "Recycle HoustonGreater TexasMetal Recycling",
    "website": "https://recyclehouston.com/",
    "street_address": "77587\n\n\n\n\n\t\t\t\tMap of 1211 College Ave\n\t\t\t\tSouth Houst",
    "city": "on",
    "region": "TX",
    "postal_code": "77587-5401",
    "country": "United States",
    "phones": [],
    "emails": [
      "harry@recylehouston.com",
      "mark@recylehouston.com",
      "chuck@recylehouston.com"
    ],
    "whatsapp": [],
    "social_links": [],
    "opening_hours": "",
    "materials": [
      "Aluminum",
      "Copper",
      "Lead",
      "Iron",
      "Brass"
    ],
    "material_prices": [],
    "description": ""
  },
  {
    "name": "Quality Metals – Top Service. Best Prices",
    "website": "https://qualitymetalstx.com/",
    "street_address": "12206 FM 529 Houst",
    "city": "on",
    "region": "TX",
    "postal_code": "77041",
    "country": "United States",
    "phones": [
      "(281) 258-4486"
    ],
    "emails": [],
    "whatsapp": [],
    "social_links": [],
    "opening_hours": "",
    "materials": [
      "Copper",
      "Scrap Metal",
      "Iron"
    ],
    "material_prices": [],
    "description": ""
  },
  {
    "name": "Garry's Auto & Truck Salvage",
    "website": "https://garrysautotrucksalvage.com/",
    "street_address": "",
    "city": "",
    "region": "TX",
    "postal_code": "77091",
    "country": "United States",
    "phones": [
      "(713) 697-3939"
    ],
    "emails": [
      "emailgarrysusedparts@gmail.com",
      "garrysusedparts@gmail.com",
      "number713-697-3939emailgarrysusedparts@gmail.comopening"
    ],
    "whatsapp": [],
    "social_links": [],
    "opening_hours": "",
    "materials": [
      "Auto Parts"
    ],
    "material_prices": [],
    "description": "Garry's Auto & Truck Salvage - Your #1 source for quality used auto parts including engines, transmissions, bumpers, fenders, headlights, wheels, tires and more. We sell recycled auto parts, used car parts and truck parts at discount prices."
  },
  {
    "name": "Recycle Centers of Harris County",
    "website": "https://recycleinfo.org/recycling-harris-county.html",
    "street_address": "1601 West Main Street",
    "city": "Baytown",
    "region": "TX",
    "postal_code": "77520",
    "country": "United States",
    "phones": [],
    "emails": [],
    "whatsapp": [],
    "social_links": [],
    "opening_hours": "",
    "materials": [
      "Steel",
      "Appliance",
      "Aluminum",
      "Scrap Metal",
      "Electronic",
      "Lead",
      "Iron"
    ],
    "material_prices": [],
    "description": "Recycling Centers and Recycling Drop-off Sites in Harris County, Texas"
  },
  {
    "name": "Q Auto Parts",
    "website": "https://qautotx.com/",
    "street_address": "6352\n\n\n\nWelcome to Q Auto Parts\n917 Aldine Mail Rte Rd",
    "city": "Houston",
    "region": "TX",
    "postal_code": "77037",
    "country": "United States",
    "phones": [
      "(281) 931-6352",
      "(281) 931-4040"
    ],
    "emails": [
      "sales@qautotx.com"
    ],
    "whatsapp": [],
    "social_links": [],
    "opening_hours": "",
    "materials": [
      "Auto Parts",
      "Iron"
    ],
    "material_prices": [],
    "description": "Q Auto Parts, LTD Auto Parts serving the area with quality used parts."
  },
  {
    "name": "Airline Auto Parts | Airline Auto Parts Website",
    "website": "https://airlineautoparts.net/",
    "street_address": "10616 Airline Dr.",
    "city": "Houston",
    "region": "TX",
    "postal_code": "77037",
    "country": "United States",
    "phones": [
      "(800) 989-0090",
      "(281) 447-9607",
      "(281) 448-2000"
    ],
    "emails": [],
    "whatsapp": [],
    "social_links": [],
    "opening_hours": "",
    "materials": [
      "Auto Parts",
      "Iron"
    ],
    "material_prices": [],
    "description": "Find quality used auto parts at Airline Auto Parts in Houston. From engines to transmissions, we help you save money while ensuring longevity and reliability."
  },
  {
    "name": "Harris County Drop-Off Sites",
    "website": "https://recycleinfo.org/2012-Centers/Harris.html",
    "street_address": "1601 West Main Street",
    "city": "Baytown",
    "region": "TX",
    "postal_code": "77520",
    "country": "United States",
    "phones": [],
    "emails": [
      "swinformation@h-gac.com"
    ],
    "whatsapp": [],
    "social_links": [],
    "opening_hours": "",
    "materials": [
      "Steel",
      "Appliance",
      "Aluminum",
      "Scrap Metal",
      "Electronic",
      "Lead",
      "Iron"
    ],
    "material_prices": [],
    "description": ""
  },
  {
    "name": "Sell to Us",
    "website": "https://scrapmetalbuyers.com/sell-to-us/",
    "street_address": "9200 Telephone Rd.",
    "city": "Houston",
    "region": "TX",
    "postal_code": "77075",
    "country": "United States",
    "phones": [
      "(954) 289-9684",
      "(954) 488-0700"
    ],
    "emails": [],
    "whatsapp": [],
    "social_links": [],
    "opening_hours": "",
    "materials": [
      "Steel",
      "Appliance",
      "Aluminum",
      "Stainless Steel",
      "Copper",
      "Scrap Metal",
      "Electronic",
      "Zinc",
      "Lead",
      "Iron"
    ],
    "material_prices": [],
    "description": ""
  },
  {
    "name": "BigCat Auto Salvage Houston TX",
    "website": "https://autosalvagehouston.com/",
    "street_address": "1010 Aldine Mail Route Rd\r\nHoust",
    "city": "on",
    "region": "TX",
    "postal_code": "77037",
    "country": "United States",
    "phones": [],
    "emails": [],
    "whatsapp": [],
    "social_links": [],
    "opening_hours": "",
    "materials": [],
    "material_prices": [],
    "description": ""
  },
  {
    "name": "Houston, Texas Scrap Metal Dealers: Gulf Coast Scrap Metal",
    "website": "https://houstontexasscrap.com/",
    "street_address": "4111\n8770 Hempstead Road",
    "city": "Houston",
    "region": "TX",
    "postal_code": "77008",
    "country": "United States",
    "phones": [
      "(713) 868-4111"
    ],
    "emails": [],
    "whatsapp": [],
    "social_links": [],
    "opening_hours": "",
    "materials": [
      "Steel",
      "Aluminum",
      "Copper",
      "Scrap Metal",
      "Lead",
      "Iron",
      "Brass"
    ],
    "material_prices": [],
    "description": "Houston, Texas scrap metal recycler, Gulf Coast Scrap Metal, pays more for your metal scrap. Call 713-868-4111 today!"
  },
  {
    "name": "â¢",
    "website": "https://houstonautoandtruckparts.com/",
    "street_address": "",
    "city": "",
    "region": "",
    "postal_code": "",
    "country": "United States",
    "phones": [
      "(281) 448-3000",
      "(888) 265-1942"
    ],
    "emails": [],
    "whatsapp": [],
    "social_links": [],
    "opening_hours": "",
    "materials": [],
    "material_prices": [],
    "description": ""
  },
  {
    "name": "Houston Metal Recycling with Gulf Coast Scrap Metal",
    "website": "https://houstontexasmetalrecycling.com/",
    "street_address": "4111\n8770 Hempstead Road",
    "city": "Houston",
    "region": "TX",
    "postal_code": "77008",
    "country": "United States",
    "phones": [
      "(713) 868-4111"
    ],
    "emails": [],
    "whatsapp": [],
    "social_links": [],
    "opening_hours": "",
    "materials": [
      "Steel",
      "Aluminum",
      "Stainless Steel",
      "Copper",
      "Scrap Metal",
      "Lead",
      "Iron",
      "Brass"
    ],
    "material_prices": [],
    "description": "No one does Houston metal recycling like Gulf Coast Scrap Metal. Call 713-868-4111 for the highest price on scrap."
  },
  {
    "name": "Advance Auto Parts InHouston, TX",
    "website": "https://stores.advanceautoparts.com/tx/houston",
    "street_address": "7750 Houston 6220 Telephone Rd Houst",
    "city": "on",
    "region": "TX",
    "postal_code": "77087",
    "country": "United States",
    "phones": [
      "(713) 263-9357",
      "(713) 697-0577",
      "(713) 924-9513"
    ],
    "emails": [],
    "whatsapp": [],
    "social_links": [],
    "opening_hours": "",
    "materials": [
      "Auto Parts",
      "Battery"
    ],
    "material_prices": [],
    "description": "Directory, TX, Houston."
  },
  {
    "name": "HOME",
    "website": "https://www.cosmoautoparts.com/",
    "street_address": "",
    "city": "",
    "region": "",
    "postal_code": "",
    "country": "United States",
    "phones": [
      "(281) 942-4742",
      "(281) 942-4747",
      "(346) 353-5311"
    ],
    "emails": [],
    "whatsapp": [],
    "social_links": [],
    "opening_hours": "",
    "materials": [
      "Auto Parts"
    ],
    "material_prices": [],
    "description": ""
  },
  {
    "name": "Scrap Metal Recycling",
    "website": "https://www.texascoastscrapmetal.com/",
    "street_address": "",
    "city": "",
    "region": "",
    "postal_code": "",
    "country": "United States",
    "phones": [
      "(713) 690-6075"
    ],
    "emails": [
      "craig32d@hotmail.com"
    ],
    "whatsapp": [],
    "social_links": [],
    "opening_hours": "",
    "materials": [
      "Steel",
      "Aluminum",
      "Stainless Steel",
      "Copper",
      "Scrap Metal",
      "Lead",
      "Iron",
      "Brass"
    ],
    "material_prices": [],
    "description": "Texas Coast Scrap Metal has provided scrap metal recycling services to the Houston, TX area for over 30 years. We pay top dollar for your scrap metal."
  },
  {
    "name": "JunkYards inHouston (Texas)",
    "website": "https://usjunkyards.com/st-texas/cy-harris/ci-houston/",
    "street_address": "",
    "city": "",
    "region": "",
    "postal_code": "",
    "country": "United States",
    "phones": [
      "(888) 853-0481",
      "(888) 871-4488"
    ],
    "emails": [],
    "whatsapp": [],
    "social_links": [],
    "opening_hours": "",
    "materials": [
      "Auto Parts",
      "Scrap Metal",
      "Iron"
    ],
    "material_prices": [],
    "description": "Explore detailed information on JunkYards near you in Houston, TX. Visit this page to locate car salvage yards where you can sell your car or find auto parts."
  },
  {
    "name": "Houston Scrap Yards: Your Trash Is Our Treasure",
    "website": "https://www.houstonscrapyards.com/",
    "street_address": "4111\n8770 Hempstead Road",
    "city": "Houston",
    "region": "TX",
    "postal_code": "77008",
    "country": "United States",
    "phones": [
      "(713) 868-4111"
    ],
    "emails": [],
    "whatsapp": [],
    "social_links": [],
    "opening_hours": "",
    "materials": [
      "Steel",
      "Copper",
      "Scrap Metal",
      "Lead",
      "Iron",
      "Brass"
    ],
    "material_prices": [],
    "description": "Gulf Coast Scrap Metal's Houston scrap yard pays you more! Call 713- 868-4111 to learn more about turning your scrap metal in to cash."
  },
  {
    "name": "Airline Auto Parts | Airline Auto Parts: A Houston Salvage Yard Leader",
    "website": "https://airlineautoparts.net/airline-auto-parts-a-houston-salvage-yard-leader/",
    "street_address": "10616 Airline Dr.",
    "city": "Houston",
    "region": "TX",
    "postal_code": "77037",
    "country": "United States",
    "phones": [
      "(800) 989-0090",
      "(281) 447-9607",
      "(281) 448-2000"
    ],
    "emails": [],
    "whatsapp": [],
    "social_links": [],
    "opening_hours": "",
    "materials": [
      "Lead",
      "Auto Parts",
      "Battery"
    ],
    "material_prices": [],
    "description": "Airline Auto Parts is happy to be known as a trusted leader in the industry of salvage yards. Visit our Houston junkyard to shop now!"
  },
  {
    "name": "Junkyards & Auto Salvagein Houston, TX",
    "website": "https://preferredjunkyard.com/texas/houston/",
    "street_address": "900 Aldine Mail Rte Rd",
    "city": "Houston",
    "region": "TX",
    "postal_code": "77037",
    "country": "United States",
    "phones": [],
    "emails": [],
    "whatsapp": [],
    "social_links": [],
    "opening_hours": "",
    "materials": [
      "Lead",
      "Auto Parts",
      "Iron"
    ],
    "material_prices": [],
    "description": "Find Trusted Junkyards and Auto Salvage Yards in Houston, Texas that Buy Junk Cars and Sell Reliable Used Auto and Truck Parts."
  }
]