[
  {
    "name": "Safety and comfort in every kilometer",
    "website": "http://autobusesloschavez.com",
    "street_address": "",
    "city": "",
    "region": "",
    "postal_code": "",
    "country": "United States",
    "phones": [
      "(455) 357-1396",
      "(415) 104-0263",
      "(713) 222-7543"
    ],
    "emails": [],
    "whatsapp": [],
    "social_links": [],
    "opening_hours": "",
    "materials": [],
    "material_prices": [],
    "description": "Enjoy a unique experience and quality service on our daily departures to thousands of destinations in the USA and Mexico."
  },
  {
    "name": "Houston Scrap Metal Recycling",
    "website": "https://www.gulfcoastscrapmetal.com/",
    "street_address": "8770 Hempstead Rd Houst",
    "city": "on",
    "region": "TX",
    "postal_code": "77008",
    "country": "United States",
    "phones": [
      "(713) 868-4111"
    ],
    "emails": [
      "gulfcoastscrapmetal@yahoo.com",
      "gulfcoastscrapmetal@yahoo.comserving"
    ],
    "whatsapp": [],
    "social_links": [],
    "opening_hours": "",
    "materials": [
      "Copper",
      "Electronic",
      "Scrap Metal",
      "Aluminum",
      "Steel",
      "Brass"
    ],
    "material_prices": [],
    "description": "Recycle industrial scrap metal with Gulf Coast Scrap Metal. Offering container services, job site pick-up, and top prices in Houston. Call 713-868-4111 today!"
  },
  {
    "name": "I Am Recycling",
    "website": "https://iamrecyclinghouston.com/",
    "street_address": "7614 Almeda GenoaHoust",
    "city": "on",
    "region": "TX",
    "postal_code": "77075",
    "country": "United States",
    "phones": [
      "(713) 991-2043"
    ],
    "emails": [
      "77075713-991-2043iamrecyclinghouston@gmail.com"
    ],
    "whatsapp": [],
    "social_links": [],
    "opening_hours": "",
    "materials": [
      "Copper",
      "Lead",
      "Scrap Metal",
      "Aluminum",
      "Steel",
      "Stainless Steel",
      "Brass"
    ],
    "material_prices": [],
    "description": ""
  },
  {
    "name": "Get Paid for Aluminum Metal Recycling at Gulf Coast Scrap Metal",
    "website": "https://www.houstonaluminum.com/",
    "street_address": "4111\n8770 Hempstead Road",
    "city": "Houston",
    "region": "TX",
    "postal_code": "77008",
    "country": "United States",
    "phones": [
      "(713) 868-4111"
    ],
    "emails": [],
    "whatsapp": [],
    "social_links": [],
    "opening_hours": "",
    "materials": [
      "Copper",
      "Lead",
      "Scrap Metal",
      "Iron",
      "Aluminum",
      "Steel",
      "Stainless Steel",
      "Brass"
    ],
    "material_prices": [],
    "description": "Aluminum recycling? Gulf Coast Scrap Metal specializes in scrap aluminum recycling. Call (713) 868-4111 today!"
  },
  {
    "name": "Houston Scrap Metal | Scrap Metal Recycling | Sell Metal Scrap | Houston, TX Scrap Yard",
    "website": "https://houstonscrapmetal.co/",
    "street_address": "11801 W Montgomery Road",
    "city": "Houston",
    "region": "TX",
    "postal_code": "77086",
    "country": "United States",
    "phones": [
      "(281) 869-3900"
    ],
    "emails": [],
    "whatsapp": [],
    "social_links": [],
    "opening_hours": "",
    "materials": [
      "Copper",
      "Electronic",
      "Scrap Metal",
      "Iron",
      "Aluminum",
      "Steel",
      "Appliance",
      "Stainless Steel",
      "Brass"
    ],
    "material_prices": [],
    "description": ""
  }
]