[
  {
    "name": "Tapatio Auto and Truck Recycling -",
    "website": "https://www.tapatioauto.com/about-us/",
    "street_address": "1851 Nirvana Ave",
    "city": "Chu",
    "region": "LA",
    "postal_code": "",
    "country": "United States",
    "phones": [
      "(800) 388-9134"
    ],
    "emails": [],
    "whatsapp": [],
    "social_links": [],
    "opening_hours": "",
    "materials": [
      "Auto Parts",
      "Iron",
      "Lead"
    ],
    "material_prices": [],
    "description": "Tapatio Auto & Truck Recycling is a leading family owned in San Diego California, environmentally responsible, with national distribution capability."
  },
  {
    "name": "BLOG",
    "website": "https://www.ranchtownrecycling.com/blog",
    "street_address": "775 Lincoln Ave",
    "city": "San Jose",
    "region": "CA",
    "postal_code": "95126",
    "country": "United States",
    "phones": [
      "(408) 292-3333"
    ],
    "emails": [],
    "whatsapp": [],
    "social_links": [],
    "opening_hours": "",
    "materials": [
      "Copper",
      "Brass",
      "Steel",
      "Aluminum",
      "Stainless Steel",
      "Lead"
    ],
    "material_prices": [],
    "description": "Ranch Town Metal Recycling offers comprehensive traditional and e-recycling services in and around San Jose, Santa Clara and Milpitas."
  },
  {
    "name": "PRICES",
    "website": "https://www.santanarecycling.com/",
    "street_address": "1560 Grand Ave",
    "city": "Sacramento",
    "region": "CA",
    "postal_code": "95838",
    "country": "United States",
    "phones": [
      "(916) 856-4734"
    ],
    "emails": [],
    "whatsapp": [],
    "social_links": [],
    "opening_hours": "",
    "materials": [
      "Aluminum",
      "Scrap Metal"
    ],
    "material_prices": [],
    "description": ""
  },
  {
    "name": "Champion",
    "website": "https://www.lvscrap.com/",
    "street_address": "",
    "city": "",
    "region": "",
    "postal_code": "",
    "country": "United States",
    "phones": [
      "(702) 648-4884"
    ],
    "emails": [],
    "whatsapp": [],
    "social_links": [],
    "opening_hours": "",
    "materials": [
      "Aluminum",
      "Copper",
      "Brass",
      "Steel"
    ],
    "material_prices": [],
    "description": ""
  },
  {
    "name": "Scrap Metal Recycling and Metal Trading Services",
    "website": "https://www.candmmetalrecyclinglosangeles.com/",
    "street_address": "1709 E 24th St",
    "city": "Los Angeles",
    "region": "CA",
    "postal_code": "90058",
    "country": "United States",
    "phones": [],
    "emails": [
      "sales@cmmetals.net"
    ],
    "whatsapp": [],
    "social_links": [],
    "opening_hours": "",
    "materials": [
      "Scrap Metal"
    ],
    "material_prices": [],
    "description": "We&#x27;re a locally-owned and operated scrap metal recycling company with 3 generations of experience. We&#x2019;re the solution for your scrap metal, paper, and cardboard recycling. We supply dumpster, industrial clean up, and certified tear down services."
  },
  {
    "name": "Sell Your Scrap Metal",
    "website": "https://www.nxtsteprecycling.com/sell-to-us",
    "street_address": "3 Certification\n  \n\nButton\n\n\n\n\n\n\n    \n\n  HIPAA Compliant\n  \n\nButton\n\n\n\n\n\n\n    \n\n  GLBA COMPLIANT\n  \n\nButton\n\n\n\n\n\n\n\n\n\n\n\n\n\n\n\n\n\n\n\n   \n      Take the Next Step IN Secure Metal Recycling\n\n\n We make e-wast",
    "city": "e dispos",
    "region": "AL",
    "postal_code": "",
    "country": "United States",
    "phones": [
      "(408) 896-6200",
      "(692) 934-6918"
    ],
    "emails": [],
    "whatsapp": [],
    "social_links": [],
    "opening_hours": "",
    "materials": [
      "Battery",
      "Copper",
      "Appliance",
      "Brass",
      "Steel",
      "Aluminum",
      "Iron",
      "Scrap Metal"
    ],
    "material_prices": [],
    "description": "Turn your scrap metal into cash with NXT Step. We offer fast, eco-friendly scrap metal recycling in San Jose, CA with pickup, drop-off, and quick payments."
  },
  {
    "name": "Junkyards in California",
    "website": "https://junkyardsnearme.net/junkyards-california/",
    "street_address": "9365 Glenoaks Blvd",
    "city": "Sun Valley",
    "region": "CA",
    "postal_code": "91352",
    "country": "United States",
    "phones": [],
    "emails": [],
    "whatsapp": [],
    "social_links": [],
    "opening_hours": "",
    "materials": [
      "Battery",
      "Auto Parts",
      "Steel",
      "Iron",
      "Scrap Metal",
      "Lead"
    ],
    "material_prices": [],
    "description": "Click here to find Junkyards in California. Use our CA find to locate the best yards in the state. You can get a free..."
  },
  {
    "name": "Metal Recycling in San Diego",
    "website": "https://industrialscrapmetal.com/california/san-diego-metal-recycling/",
    "street_address": "200 years later.\n\n\n\n\n\n\n\n\n\n\nAreas We Serve For Metal Recycling in California\n\nActonAdelantoAgouraAgoura HillsAgua DulceAlhambraAliso ViejoAlondra ParkAlpineAltadenaAnaheimAnzaApple ValleyArcadiaArlanzaArtesiaAtwaterAvalonAvocado HeightsAzusaBaldwin ParkBandiniBanningBarstowBarstow HeightsBeaumontBellBell GardensBellflowerBelvedereBermuda DunesBeverly HillsBig Bear CityBig Bear LakeBig RiverBloomingtonBlytheBonitaBonsallBorrego SpringsBostoniaBoyle HeightsBrandeisBreaBrentwoodBuelltonBuena ParkBurbankCabazonCalabasasCalimesaCamarilloCameron CornersCamp Pendleton NorthCamp Pendleton SouthCampoCanoga ParkCanyon CountryCanyon LakeCardiff-by-the-SeaCarlsbadCarmel ValleyCarpinteriaCarsonCasa ConejoCasa de Oro-Mount HelixCastaicCathedral CityCentury CityCerritosChannel Islands BeachCharter OakChatsworthCherry ValleyChinoChino HillsChula VistaCitrusClaremontCoachellaColtonCommerceComptonCoronaCoronadoCosta MesaCoto De CazaCovinaCowan HeightsCrestCrestlineCudahyCulver CityCypressDana PointDeclezvilleDel AireDel MarDel ReyDescansoDesert EdgeDesert Hot SpringsDesert View HighlandsDiamond BarDove CanyonDowneyDuarteEagle RockEast HemetEast IrvineEast La MiradaEast Los AngelesEast PasadenaEast Rancho DominguezEast San GabrielEast WhittierEastvaleEcho ParkEdenEl CajonEl Cerrito CoronaEl MonteEl RioEl SegundoEl SerenoEncinitasEncinoEscondidoEucalyptus HillsFairbanks RanchFairviewFallbrookFillmoreFlorence-GrahamFontanaFoothill RanchForest FallsFort IrwinFountain ValleyFremontFrench ValleyFullertonGarden GroveGardenaGarnetGlen AvonGlendaleGlendoraGoletaGood HopeGrand TerraceGranite HillsGrapelandGreen AcresGuadalupeHacienda HeightsHarbison CanyonHawaiian GardensHawthorneHelendaleHemetHermosa BeachHesperiaHi VistaHidden HillsHidden MeadowsHighgroveHighlandHighland ParkHillgroveHinkleyHollywoodHome GardensHomelandHope RanchHuntington BeachHuntington ParkIdyllwildIdyllwild-Pine CoveImperial BeachIndian WellsIndioInglewoodIrvineIrwindaleIsla VistaJamulJoshua TreeJurupa ValleyKoreatownKramer Junct",
    "city": "ion",
    "region": "LA",
    "postal_code": "",
    "country": "United States",
    "phones": [],
    "emails": [
      "billy@warank.com"
    ],
    "whatsapp": [],
    "social_links": [],
    "opening_hours": "",
    "materials": [
      "Battery",
      "Copper",
      "Brass",
      "Steel",
      "Aluminum",
      "Iron",
      "Scrap Metal",
      "Lead",
      "Zinc"
    ],
    "material_prices": [],
    "description": "Metal Recycling in San Diego, CA by Industrial Scrap Metal Recycling company. We recycle all types of metal like Alloy Steel, Aluminum, Appliances recycling, Automobile Batteries, and Brass in San Diego, CA, etc."
  },
  {
    "name": "West Side Metal Recycling - Scrap Metal Recycling, Liquidations, Metal Recycling Center",
    "website": "http://www.wsrecycling.com/",
    "street_address": "6449 San Fernando Rd.",
    "city": "Glendale",
    "region": "CA",
    "postal_code": "91201",
    "country": "United States",
    "phones": [],
    "emails": [
      "info@wsrecycling.com",
      "mario@wsrecycling.com"
    ],
    "whatsapp": [],
    "social_links": [],
    "opening_hours": "",
    "materials": [
      "Scrap Metal",
      "Electronic"
    ],
    "material_prices": [],
    "description": "All purpose scrap metal recycling company. We also handle business customers, liquidations, excess inventory, facility cleanouts, etc. Call us today"
  },
  {
    "name": "SA Recycling Tucson Miracle Mile",
    "website": "https://www.sarecycling.com/yard/sa-recycling-tucson-miracle-mile/",
    "street_address": "1525 West",
    "city": "Miracle Mile Tucson",
    "region": "AZ",
    "postal_code": "85705",
    "country": "United States",
    "phones": [
      "(800) 468-7272",
      "(520) 622-7416"
    ],
    "emails": [
      "inquiries.tucson-miraclemile@sarecycling.com"
    ],
    "whatsapp": [],
    "social_links": [],
    "opening_hours": "",
    "materials": [
      "Copper",
      "Appliance",
      "Brass",
      "Steel",
      "Aluminum",
      "Iron",
      "Stainless Steel",
      "Scrap Metal",
      "Lead",
      "Zinc"
    ],
    "material_prices": [],
    "description": ""
  },
  {
    "name": "San Jose Metals Recycling Facility",
    "website": "https://recyclingcenters.org/Business_Profile/103362/95051/sanjosemetalsrecyclingfacility.html",
    "street_address": "1032 North 10th St",
    "city": "San Jose",
    "region": "CA",
    "postal_code": "95112",
    "country": "United States",
    "phones": [
      "(408) 293-4032"
    ],
    "emails": [],
    "whatsapp": [],
    "social_links": [],
    "opening_hours": "",
    "materials": [
      "Electronic"
    ],
    "material_prices": [],
    "description": "San Jose Metals Recycling Facility - 1032 North 10th St San Jose, CA 95112 Local Recycling Centers and Recycling Information and Statistics"
  },
  {
    "name": "Frequently Asked Questions",
    "website": "https://calmetalrecyclers.com/faq/",
    "street_address": "404\n\n\n\n\n\nGot a quest",
    "city": "ion",
    "region": "OR",
    "postal_code": "",
    "country": "United States",
    "phones": [],
    "emails": [],
    "whatsapp": [],
    "social_links": [],
    "opening_hours": "",
    "materials": [
      "Appliance",
      "Steel",
      "Iron",
      "Scrap Metal",
      "Lead"
    ],
    "material_prices": [],
    "description": ""
  },
  {
    "name": "California Scrap Metal Prices - USA",
    "website": "https://www.priceofscrapmetals.com/california/",
    "street_address": "2 years and law enforcement have the right to inspect these record",
    "city": "s at a",
    "region": "NY",
    "postal_code": "",
    "country": "United States",
    "phones": [],
    "emails": [],
    "whatsapp": [],
    "social_links": [],
    "opening_hours": "",
    "materials": [
      "Copper",
      "Brass",
      "Steel",
      "Electronic",
      "Aluminum",
      "Precious Metals",
      "Iron",
      "Stainless Steel",
      "Scrap Metal",
      "Lead"
    ],
    "material_prices": [],
    "description": "Find the Latest Scrap Metal Prices in California today. Check the current scrap price for copper, steel, aluminum, brass, gold and other ferrous and non-ferrous materials."
  },
  {
    "name": "Junkyard Auto Parts inLos Angeles (CA)",
    "website": "https://usjunkyards.com/st-california/cy-los-angeles/ci-los-angeles/yd-2375-junkyard-auto-parts/",
    "street_address": "3 Reviews\n\n\n\n\n\nView Junkyard\nSell Car\n\n\n \n\n\n\n\n\n\n\n                    AAA Junk Removal\n                \n\n\n\n\n\n\n Based on 12 Reviews\n\n\n\n\n\nView Junkyard",
    "city": "Sell C",
    "region": "AR",
    "postal_code": "",
    "country": "United States",
    "phones": [
      "(888) 853-0481",
      "(310) 518-0037"
    ],
    "emails": [],
    "whatsapp": [],
    "social_links": [],
    "opening_hours": "",
    "materials": [
      "Auto Parts",
      "Scrap Metal"
    ],
    "material_prices": [],
    "description": "Junkyard Auto Parts is located in the city of Los Angeles, CA  ᐉ Contact information, reviews, photos, and opening hours are on our USJunkYards salvage yard database. Closed."
  },
  {
    "name": "Allied Auto Recycling Yard - Quality Used Parts - We Buy Cars - Riverside, CA",
    "website": "https://www.alliedautosalvage.com/",
    "street_address": "1926 Spruce St.",
    "city": "Riverside",
    "region": "CA",
    "postal_code": "92507",
    "country": "United States",
    "phones": [
      "(877) 784-0057",
      "(951) 784-0057"
    ],
    "emails": [],
    "whatsapp": [],
    "social_links": [],
    "opening_hours": "Store Hours: Mon - Fri 8:00am - 5:00pm",
    "materials": [
      "Auto Parts"
    ],
    "material_prices": [],
    "description": "Allied Auto Recycling Yard - Quality Used Parts - We Buy Cars - Riverside, CA"
  },
  {
    "name": "IMPORTS LA SALVAGE - Quality Used Auto Parts, T.323-588-6100. Los Angeles, CA",
    "website": "https://importslasalvage.com/",
    "street_address": "6100\n\n\n\n\n\n\n\n\n\n\n\n\n\n\n  \n\n\n\nHome\nAbout\nServices\nOur Inventory\nReach us\n\nContact\n\n\n\n\n\n\n\n\n\n\n\n\n\nOur Inventory\n\n\n\n\n\n\n\n\n\n\n\n\n\n\n\n\n\n\n\n\n\n\nIMPORTS LA SALVAGE\nServing Southern California used auto parts indust",
    "city": "ry a",
    "region": "ND",
    "postal_code": "",
    "country": "United States",
    "phones": [
      "(323) 588-6100"
    ],
    "emails": [
      "number323-588-6100emailimportslasalv@gmail.comopening",
      "importslasalv@gmail.com",
      "emailimportslasalv@gmail.com"
    ],
    "whatsapp": [],
    "social_links": [],
    "opening_hours": "",
    "materials": [
      "Auto Parts"
    ],
    "material_prices": [],
    "description": "Thousands of used auto parts for Honda, Toyota, Nissan, Volkswagen, KIA, Hyundai, Mazda cars near you."
  },
  {
    "name": "Recycling Plastic and Metal | Universal Service Recycling, Inc. R",
    "website": "https://usrscrap.com/",
    "street_address": "3200 South El Dorado StreetSt",
    "city": "ockton",
    "region": "CA",
    "postal_code": "95206",
    "country": "United States",
    "phones": [],
    "emails": [
      "info@usrscrap.com"
    ],
    "whatsapp": [],
    "social_links": [],
    "opening_hours": "",
    "materials": [
      "Scrap Metal",
      "Iron"
    ],
    "material_prices": [],
    "description": "Recycling cans, plastic bottles and metal in Stockton, Modesto, Merced and Sacramento, California. Largest metal recycler for cash"
  },
  {
    "name": "EXPERIENCED RECYCLING COMPANY SERVING ​THESAN JOSE AREA",
    "website": "https://www.ranchtownrecycling.com/",
    "street_address": "775 Lincoln Ave",
    "city": "San Jose",
    "region": "CA",
    "postal_code": "95126",
    "country": "United States",
    "phones": [
      "(408) 292-3333"
    ],
    "emails": [],
    "whatsapp": [],
    "social_links": [],
    "opening_hours": "",
    "materials": [
      "Copper",
      "Brass",
      "Steel",
      "Electronic",
      "Aluminum",
      "Iron",
      "Stainless Steel",
      "Scrap Metal",
      "Lead"
    ],
    "material_prices": [],
    "description": "Need help recycling scrap metal? Visit Ranch Town Recycling in San Jose, CA. We pay cash! Call 408-292-3333 today"
  },
  {
    "name": "Junkyards & Auto Salvagein Reno, NV",
    "website": "https://preferredjunkyard.com/nevada/reno/",
    "street_address": "301 Montello St",
    "city": "Reno",
    "region": "NV",
    "postal_code": "89512",
    "country": "United States",
    "phones": [],
    "emails": [],
    "whatsapp": [],
    "social_links": [],
    "opening_hours": "",
    "materials": [
      "Auto Parts",
      "Iron"
    ],
    "material_prices": [],
    "description": "Find Trusted Junkyards and Auto Salvage Yards in Reno, Nevada that Buy Junk Cars and Sell Reliable Used Auto and Truck Parts."
  },
  {
    "name": "Junk Scrap Yards in California",
    "website": "https://junkscrapyard.com/state-province/california/",
    "street_address": "3624 Recycle RoadRancho Cord",
    "city": "ova",
    "region": "CA",
    "postal_code": "95742",
    "country": "United States",
    "phones": [
      "(800) 235-8733",
      "(877) 643-7626",
      "(888) 630-8949"
    ],
    "emails": [
      "ipartsonly@gmail.com",
      "bluemotors@sbcglobal.net",
      "brad@subwaytruckparts.com"
    ],
    "whatsapp": [],
    "social_links": [],
    "opening_hours": "",
    "materials": [
      "Auto Parts",
      "Copper",
      "Brass",
      "Steel",
      "Electronic",
      "Aluminum",
      "Iron",
      "Stainless Steel",
      "Scrap Metal",
      "Lead"
    ],
    "material_prices": [],
    "description": "Junk Scrap Yards in California"
  },
  {
    "name": "Las Vegas,Nevada Junkyards & Salvage Yards",
    "website": "https://www.rustysautosalvage.com/nevada/las-vegas.html",
    "street_address": "",
    "city": "",
    "region": "",
    "postal_code": "",
    "country": "United States",
    "phones": [
      "(866) 439-4401",
      "(417) 793-2028",
      "(412) 141-7793"
    ],
    "emails": [],
    "whatsapp": [],
    "social_links": [],
    "opening_hours": "",
    "materials": [
      "Scrap Metal",
      "Lead"
    ],
    "material_prices": [],
    "description": "Our network of Las Vegas Nevada junkyards and auto salvage yards will pay you cash for your junk car on the spot and offer free junk car removal in all of Las Vegas NV."
  },
  {
    "name": "All Japanese Auto Parts inEast Los Angeles (CA)",
    "website": "https://usjunkyards.com/st-california/cy-los-angeles/ci-east-los-angeles/yd-19908-all-japanese-auto-parts/",
    "street_address": "2018\n\t\t\t\t\t\t\t\t\t\t\t\n\n\n\n\n\n\n\n\n\n \nAdr",
    "city": "ian Di",
    "region": "AZ",
    "postal_code": "",
    "country": "United States",
    "phones": [
      "(888) 853-0481",
      "(323) 564-7900"
    ],
    "emails": [],
    "whatsapp": [],
    "social_links": [],
    "opening_hours": "",
    "materials": [
      "Auto Parts",
      "Scrap Metal",
      "Iron"
    ],
    "material_prices": [],
    "description": "All Japanese Auto Parts is located in the city of East Los Angeles, CA  ᐉ Contact information, reviews, photos, and opening hours are on our USJunkYards salvage yard database."
  },
  {
    "name": "Junk King San Jose's Scrap Metal Pickup Services",
    "website": "https://www.junk-king.com/locations/sanjose/scrap-metal-pickup",
    "street_address": "2005 Junk King was launched as the dependable junk hauling service to clear unwanted clutter from homes and businesses.\n\n\nContact Us Have any quest",
    "city": "ions abo",
    "region": "UT",
    "postal_code": "",
    "country": "United States",
    "phones": [
      "(737) 888-5865",
      "(408) 912-1063",
      "(888) 888-5865"
    ],
    "emails": [],
    "whatsapp": [],
    "social_links": [],
    "opening_hours": "",
    "materials": [
      "Copper",
      "Appliance",
      "Brass",
      "Steel",
      "Electronic",
      "Aluminum",
      "Iron",
      "Scrap Metal",
      "Lead"
    ],
    "material_prices": [],
    "description": "Scrap Metal Pickup | Junk King San Jose can provide you with top-notch scrap metal pickup services in San Jose, CA, and the surrounding areas."
  },
  {
    "name": "SA Recycling San Diego Main St",
    "website": "https://www.sarecycling.com/yard/sa-recycling-san-diego-main-st/",
    "street_address": "2411 North Glassell Street",
    "city": "Orange",
    "region": "CA",
    "postal_code": "92865",
    "country": "United States",
    "phones": [
      "(619) 234-6691",
      "(800) 468-7272"
    ],
    "emails": [
      "inquiries.sandiego-main@sarecycling.com"
    ],
    "whatsapp": [],
    "social_links": [],
    "opening_hours": "",
    "materials": [
      "Copper",
      "Appliance",
      "Brass",
      "Steel",
      "Aluminum",
      "Iron",
      "Stainless Steel",
      "Scrap Metal",
      "Lead",
      "Zinc"
    ],
    "material_prices": [],
    "description": ""
  },
  {
    "name": "San Francisco California Junkyards & Salvage Yards",
    "website": "https://www.kellysjunkyards.com/california/san-francisco.html",
    "street_address": "",
    "city": "San Francisco",
    "region": "CA",
    "postal_code": "94102",
    "country": "United States",
    "phones": [
      "(877) 345-3559"
    ],
    "emails": [],
    "whatsapp": [],
    "social_links": [],
    "opening_hours": "",
    "materials": [],
    "material_prices": [],
    "description": ""
  },
  {
    "name": "Junkyards list inSan Diego (CA)",
    "website": "https://usjunkyards.com/st-california/cy-san-diego/",
    "street_address": "73 Reviews\n\n\n150 Reed Ct",
    "city": "Chu",
    "region": "LA",
    "postal_code": "",
    "country": "United States",
    "phones": [
      "(888) 853-0481"
    ],
    "emails": [],
    "whatsapp": [],
    "social_links": [],
    "opening_hours": "",
    "materials": [
      "Auto Parts",
      "Scrap Metal",
      "Lead"
    ],
    "material_prices": [],
    "description": "This page has compiled the nearest junkyards and auto salvage in San Diego County, CA. ⭐ On this page, you can locate the nearest junkyards and salvage yards to find parts for your vehicle or to sell it."
  },
  {
    "name": "Alameda Metals, Corp",
    "website": "https://www.alamedametals.com/",
    "street_address": "",
    "city": "",
    "region": "",
    "postal_code": "",
    "country": "United States",
    "phones": [
      "(661) 538-0299"
    ],
    "emails": [
      "contact@alamedametals.com",
      "alamedametalsusa@gmail.com"
    ],
    "whatsapp": [],
    "social_links": [],
    "opening_hours": "",
    "materials": [
      "Appliance",
      "Aluminum",
      "Copper",
      "Scrap Metal"
    ],
    "material_prices": [],
    "description": "Alameda Metals is a state of the art, full service recycling center located in Palmdale, California."
  },
  {
    "name": "Arizona Scrap Metal Buyers & Recycling Centers",
    "website": "https://scrapvisor.com/arizona/",
    "street_address": "0\n\n\n\n\n\n\n\n\nTurbine Alloys\n2229 W Roosevelt St",
    "city": "Phoenix",
    "region": "AZ",
    "postal_code": "85009",
    "country": "United States",
    "phones": [
      "(520) 348-2001",
      "(520) 989-7286",
      "(602) 258-5885"
    ],
    "emails": [],
    "whatsapp": [],
    "social_links": [],
    "opening_hours": "",
    "materials": [
      "Copper",
      "Brass",
      "Steel",
      "Aluminum",
      "Iron",
      "Stainless Steel",
      "Scrap Metal",
      "Lead",
      "Zinc"
    ],
    "material_prices": [],
    "description": "Find trusted scrap metal buyers and recycling centers in Arizona. View up-to-date scrap metal prices, explore our interactive map of local scrap yards, and connect with reputable companies for fast and profitable scrap sales."
  },
  {
    "name": "YOUR PREMIERSCRAP METAL RECYCLING CENTER",
    "website": "https://www.gmrecycling.com/",
    "street_address": "65072301 W 5th Street",
    "city": "Santa Ana",
    "region": "CA",
    "postal_code": "92703",
    "country": "United States",
    "phones": [
      "(323) 722-9995"
    ],
    "emails": [
      "info@gmrecycling.com"
    ],
    "whatsapp": [],
    "social_links": [],
    "opening_hours": "",
    "materials": [
      "Copper",
      "Brass",
      "Steel",
      "Aluminum",
      "Iron",
      "Scrap Metal",
      "Stainless Steel"
    ],
    "material_prices": [],
    "description": "General Metal Recycling Co. in Montebello, CA, has your ferrous and nonferrous metal recycling needs covered. Call us at 323-722-9995 today."
  },
  {
    "name": "Scrap Division",
    "website": "https://renosalvage.com/scrap-division/",
    "street_address": "301 Montello Street",
    "city": "Reno",
    "region": "NV",
    "postal_code": "89512",
    "country": "United States",
    "phones": [
      "(775) 323-7109"
    ],
    "emails": [
      "renosalvage@gmail.com",
      "323-7109renosalvage@gmail.comhours"
    ],
    "whatsapp": [],
    "social_links": [],
    "opening_hours": "",
    "materials": [
      "Copper",
      "Appliance",
      "Brass",
      "Steel",
      "Aluminum",
      "Iron",
      "Stainless Steel",
      "Scrap Metal",
      "Lead"
    ],
    "material_prices": [],
    "description": ""
  },
  {
    "name": "All Recycling Center",
    "website": "https://iscrapapp.com/yards/us-california-barstow-all-recycling-center/",
    "street_address": "75\nFire Wire\nForktruck Battery\nFSX 414\nFuses\nGold\nHard Drive Boards\nHard Drives\nHard Drives without Boards\nHastelloy Solids\nHastelloy Turnings\nHeliax Wire\nHigh Speed Steel\nHousewire\nIncomplete Car\nInconel\nInconel 792\nInconel 800\nInconel 825\nInk Cartridges\nInsulated Aluminum Wire\nInsulated Copper Cable\nInsulated Copper Wire\nInsulated Steel BX\nInvar\nJunkshop Extrusion\nKeyboard",
    "city": "s\nKov",
    "region": "AR",
    "postal_code": "",
    "country": "United States",
    "phones": [
      "(760) 256-1204"
    ],
    "emails": [],
    "whatsapp": [],
    "social_links": [],
    "opening_hours": "",
    "materials": [
      "Battery",
      "Copper",
      "Brass",
      "Steel",
      "Catalytic Converter",
      "Aluminum",
      "Iron",
      "Stainless Steel",
      "Scrap Metal",
      "Lead"
    ],
    "material_prices": [],
    "description": "All Recycling Center, Scrap Metal Yard in Barstow, California"
  },
  {
    "name": "Serving South Floridawith quality used auto parts",
    "website": "http://www.sanjoseusedautoparts.com/",
    "street_address": "0383\n786.985.9946\n\n\n\n5050 E 11th Ave",
    "city": "Hialeah",
    "region": "FL",
    "postal_code": "33013",
    "country": "United States",
    "phones": [
      "(786) 985-9946",
      "(305) 688-0383"
    ],
    "emails": [],
    "whatsapp": [],
    "social_links": [],
    "opening_hours": "Mon - Fri 8:00am - 4:00pm Sat & Sun Closed",
    "materials": [
      "Auto Parts"
    ],
    "material_prices": [],
    "description": "Hialeah Auto Recyclers LLC: serving South Florida with quality used parts and a passion for the automotive industry"
  },
  {
    "name": "Quality Auto & Truck Parts",
    "website": "http://www.actionautosanjose.com/",
    "street_address": "242 Hillcap Avenue",
    "city": "San Jose",
    "region": "CA",
    "postal_code": "95136",
    "country": "United States",
    "phones": [
      "(800) 606-9732",
      "(408) 225-5553"
    ],
    "emails": [],
    "whatsapp": [],
    "social_links": [],
    "opening_hours": "",
    "materials": [
      "Auto Parts"
    ],
    "material_prices": [],
    "description": ""
  },
  {
    "name": "Scrap metal collection andrecycling services",
    "website": "https://www.pinascrapmetal.com/",
    "street_address": "",
    "city": "Grass Valley",
    "region": "CA",
    "postal_code": "95945",
    "country": "United States",
    "phones": [
      "(503) 802-1015",
      "(530) 802-1015"
    ],
    "emails": [
      "info@pinascrapmetal.com"
    ],
    "whatsapp": [],
    "social_links": [],
    "opening_hours": "",
    "materials": [
      "Copper",
      "Brass",
      "Steel",
      "Electronic",
      "Aluminum",
      "Precious Metals",
      "Stainless Steel",
      "Scrap Metal",
      "Lead",
      "Zinc"
    ],
    "material_prices": [],
    "description": ""
  },
  {
    "name": "Scrap Metal Recycling | Sell & Recycle Metal with Alco Metals",
    "website": "https://alcometals.com/scrap-metal/",
    "street_address": "30 PM\n\n\n\n\n\n \n2140 Davis St",
    "city": "San Leandro",
    "region": "CA",
    "postal_code": "94577",
    "country": "United States",
    "phones": [
      "(510) 562-1107"
    ],
    "emails": [
      "info@alcometals.com"
    ],
    "whatsapp": [],
    "social_links": [],
    "opening_hours": "",
    "materials": [
      "Appliance",
      "Iron",
      "Scrap Metal"
    ],
    "material_prices": [],
    "description": "Alco Metals offers top-dollar pricing for scrap metal recycling in the Bay Area. Sell aluminum, stainless steel, and more with eco-friendly recycling solutions."
  },
  {
    "name": "Alco Metals | Bay Area Metal Supplier & Recycling Services",
    "website": "https://alcometals.com/about-us/",
    "street_address": "30 PM\n\n\n\n\n\n \n2140 Davis St",
    "city": "San Leandro",
    "region": "CA",
    "postal_code": "94577",
    "country": "United States",
    "phones": [
      "(510) 562-1107"
    ],
    "emails": [
      "info@alcometals.com"
    ],
    "whatsapp": [],
    "social_links": [],
    "opening_hours": "",
    "materials": [
      "Appliance",
      "Iron",
      "Lead",
      "Scrap Metal"
    ],
    "material_prices": [],
    "description": ""
  },
  {
    "name": "Nevada Scrap Metal Buyers & Recycling Centers",
    "website": "https://scrapvisor.com/nevada/",
    "street_address": "175 Lyon Dr",
    "city": "Fernley",
    "region": "NV",
    "postal_code": "89408",
    "country": "United States",
    "phones": [
      "(775) 200-0369",
      "(775) 618-0345",
      "(775) 209-0077"
    ],
    "emails": [],
    "whatsapp": [],
    "social_links": [],
    "opening_hours": "",
    "materials": [
      "Copper",
      "Brass",
      "Steel",
      "Aluminum",
      "Iron",
      "Stainless Steel",
      "Scrap Metal",
      "Lead",
      "Zinc"
    ],
    "material_prices": [],
    "description": "Find trusted scrap metal buyers and recycling centers in Nevada. View up-to-date scrap metal prices, explore our interactive map of local scrap yards, and connect with reputable companies for fast and profitable scrap sales."
  },
  {
    "name": "San Diego County Recycling - Metals, We Recycle All Metals",
    "website": "https://sandiegocountyrecycling.com/contact",
    "street_address": "3974 Spring Drive",
    "city": "Spring Valley",
    "region": "CA",
    "postal_code": "91977",
    "country": "United States",
    "phones": [
      "(619) 741-9780"
    ],
    "emails": [
      "sdc_recycling@yahoo.com",
      "sdc_recycling@yahoo.comhoursopen"
    ],
    "whatsapp": [],
    "social_links": [],
    "opening_hours": "",
    "materials": [],
    "material_prices": [],
    "description": "San Diego's Leader In Metals Recycling.  Conveniently located in Spring Valley off 94 and Bancroft Exit. We recycle all metals."
  },
  {
    "name": "Call Today! 916-912-0487",
    "website": "http://www.rudysmetals.com/",
    "street_address": "750 Richards Boulevard",
    "city": "Sacramento",
    "region": "CA",
    "postal_code": "95811",
    "country": "United States",
    "phones": [
      "(916) 912-0487"
    ],
    "emails": [
      "info@rudysmetals.com"
    ],
    "whatsapp": [],
    "social_links": [],
    "opening_hours": "",
    "materials": [
      "Copper",
      "Appliance",
      "Brass",
      "Steel",
      "Aluminum",
      "Iron",
      "Catalytic Converter"
    ],
    "material_prices": [],
    "description": ""
  },
  {
    "name": "OUR SERVICES",
    "website": "https://www.aim-recycling.com/us/san-diego",
    "street_address": "",
    "city": "",
    "region": "",
    "postal_code": "",
    "country": "United States",
    "phones": [
      "(619) 661-1148"
    ],
    "emails": [
      "info@aim-recycling.com"
    ],
    "whatsapp": [],
    "social_links": [],
    "opening_hours": "",
    "materials": [
      "Copper",
      "Brass",
      "Steel",
      "Electronic",
      "Aluminum",
      "Iron"
    ],
    "material_prices": [],
    "description": "Top Prices Paid Recycling Steel, Iron, Household Appliances, BBQs, Aluminum, Copper, Wires, Brass & More"
  },
  {
    "name": "Junkyards & Auto Salvagein Sacramento, CA",
    "website": "https://preferredjunkyard.com/california/sacramento/",
    "street_address": "903 Del Paso Blvd",
    "city": "Sacramento",
    "region": "CA",
    "postal_code": "95815",
    "country": "United States",
    "phones": [],
    "emails": [],
    "whatsapp": [],
    "social_links": [],
    "opening_hours": "",
    "materials": [
      "Auto Parts",
      "Iron"
    ],
    "material_prices": [],
    "description": "Find Trusted Junkyards and Auto Salvage Yards in Sacramento, California that Buy Junk Cars and Sell Reliable Used Auto and Truck Parts."
  },
  {
    "name": "San Diego Auto Wrecking",
    "website": "http://recycler.car-part.com/SanDiegoAutoWrecking/",
    "street_address": "951 Suite C Heritage Rd",
    "city": "San Diego",
    "region": "CA",
    "postal_code": "92154",
    "country": "United States",
    "phones": [
      "(619) 661-1141",
      "(619) 671-9800",
      "(619) 661-1908"
    ],
    "emails": [
      "sandiegoaw@hotmail.com"
    ],
    "whatsapp": [],
    "social_links": [],
    "opening_hours": "",
    "materials": [],
    "material_prices": [],
    "description": "San Diego Auto Wrecking: serving the San Diego, CA area with quality used parts"
  },
  {
    "name": "Junkyards & Auto Salvagein Hayward, CA",
    "website": "https://preferredjunkyard.com/california/hayward/",
    "street_address": "452 W Tennyson Rd",
    "city": "Hayward",
    "region": "CA",
    "postal_code": "94544",
    "country": "United States",
    "phones": [],
    "emails": [],
    "whatsapp": [],
    "social_links": [],
    "opening_hours": "",
    "materials": [
      "Battery",
      "Iron",
      "Catalytic Converter",
      "Auto Parts"
    ],
    "material_prices": [],
    "description": "Find Trusted Junkyards and Auto Salvage Yards in Hayward, California that Buy Junk Cars and Sell Reliable Used Auto and Truck Parts."
  },
  {
    "name": "Mings Recycling Corp",
    "website": "https://iscrapapp.com/yards/us-california-sacramento-mings-recycling-corp-2/",
    "street_address": "75\nFire Wire\nForktruck Battery\nFSX 414\nFuses\nGold\nHard Drive Boards\nHard Drives\nHard Drives without Boards\nHastelloy Solids\nHastelloy Turnings\nHeliax Wire\nHigh Speed Steel\nHousewire\nIncomplete Car\nInconel\nInconel 792\nInconel 800\nInconel 825\nInk Cartridges\nInsulated Aluminum Wire\nInsulated Copper Cable\nInsulated Copper Wire\nInsulated Steel BX\nInvar\nJunkshop Extrusion\nKeyboard",
    "city": "s\nKov",
    "region": "AR",
    "postal_code": "",
    "country": "United States",
    "phones": [
      "(916) 421-5054"
    ],
    "emails": [],
    "whatsapp": [],
    "social_links": [],
    "opening_hours": "",
    "materials": [
      "Battery",
      "Copper",
      "Brass",
      "Steel",
      "Catalytic Converter",
      "Aluminum",
      "Iron",
      "Stainless Steel",
      "Scrap Metal",
      "Lead"
    ],
    "material_prices": [],
    "description": "Mings Recycling Corp, Scrap Metal Yard in Sacramento, California"
  },
  {
    "name": "US Auto Parts inSacramento (CA)",
    "website": "https://usjunkyards.com/st-california/cy-sacramento/ci-sacramento/yd-2622-us-auto-parts/",
    "street_address": "2020\n\t\t\t\t\t\t\t\t\t\t\t\n\n\n\n\n\n\n\n\n\n \nAraceli Nadal\n\n\n\nI return a broken headlight and they agree to send the money back. Their Bank declined the refund. Contact",
    "city": "them a",
    "region": "ND",
    "postal_code": "",
    "country": "United States",
    "phones": [
      "(888) 853-0481",
      "(916) 851-9090"
    ],
    "emails": [],
    "whatsapp": [],
    "social_links": [],
    "opening_hours": "",
    "materials": [
      "Auto Parts",
      "Scrap Metal"
    ],
    "material_prices": [],
    "description": "US Auto Parts is located in the city of Sacramento, CA  ᐉ Contact information, reviews, photos, and opening hours are on our USJunkYards salvage yard database."
  },
  {
    "name": "Metal",
    "website": "https://www.sandiegocounty.gov/content/sdc/dpw/recycling/Metal.html",
    "street_address": "3900  2-1-1 San\n  Diego Board of Supervisors Department Contact",
    "city": "s Med",
    "region": "IA",
    "postal_code": "",
    "country": "United States",
    "phones": [],
    "emails": [
      "recycle@sdcounty.ca.gov"
    ],
    "whatsapp": [],
    "social_links": [],
    "opening_hours": "",
    "materials": [
      "Steel",
      "Electronic",
      "Aluminum",
      "Iron",
      "Scrap Metal"
    ],
    "material_prices": [],
    "description": ""
  },
  {
    "name": "San Jose Recycles",
    "website": "https://sanjoserecycles.org/guide/scrap-metal/",
    "street_address": "",
    "city": "",
    "region": "",
    "postal_code": "",
    "country": "United States",
    "phones": [],
    "emails": [
      "sjenvironment@sanjoseca.gov"
    ],
    "whatsapp": [],
    "social_links": [],
    "opening_hours": "",
    "materials": [
      "Auto Parts",
      "Copper",
      "Brass",
      "Steel",
      "Electronic",
      "Aluminum",
      "Iron",
      "Scrap Metal"
    ],
    "material_prices": [],
    "description": ""
  },
  {
    "name": "A & R Scrap Metal Recycling CompanyA Scrap Metal Buyer in West Sacramento, California",
    "website": "https://www.armetalrecyclers.com/scrap-metal-buyer-west-sacramento-california.html",
    "street_address": "",
    "city": "",
    "region": "",
    "postal_code": "",
    "country": "United States",
    "phones": [
      "(832) 407-2801"
    ],
    "emails": [],
    "whatsapp": [],
    "social_links": [],
    "opening_hours": "",
    "materials": [
      "Scrap Metal"
    ],
    "material_prices": [],
    "description": "A & R Scrap Metal Recycling Company, scrap metal buyer in West Sacramento, California, scrap metal recycler, recycle scrap metal, scrap metal prices, scrap buyer, West Sacramento, California, CO"
  },
  {
    "name": "ABOUT ATLAS IRON & METAL CO.",
    "website": "https://atlasironandmetal.com/",
    "street_address": "10019 S Alameda Street",
    "city": "Los Angeles",
    "region": "CA",
    "postal_code": "90002",
    "country": "United States",
    "phones": [
      "(800) 540-5184",
      "(566) 518-4800",
      "(323) 566-5184"
    ],
    "emails": [],
    "whatsapp": [],
    "social_links": [],
    "opening_hours": "",
    "materials": [
      "Copper",
      "Iron",
      "Scrap Metal",
      "Steel"
    ],
    "material_prices": [],
    "description": "Atlas Iron & Metal Co. has been providing the Los Angeles area with scrap metal recycling services since 1949. Our goal is to make it easy and fun to scrap and recycle unwanted metals in Los Angeles, CA."
  },
  {
    "name": "San Francisco, CaliforniaScrap Metal Recycling & Disposal",
    "website": "https://www.usahazmat.com/us/ca/san-francisco/scrap-metal-recycling/",
    "street_address": "30 years and its because of the hard",
    "city": "work a",
    "region": "ND",
    "postal_code": "",
    "country": "United States",
    "phones": [
      "(855) 242-9628"
    ],
    "emails": [],
    "whatsapp": [],
    "social_links": [],
    "opening_hours": "",
    "materials": [
      "Scrap Metal",
      "Iron"
    ],
    "material_prices": [],
    "description": "Preferred hazardous waste recycling partner for San Francisco for mixed waste scrap metals."
  },
  {
    "name": "Recycling Center",
    "website": "https://www.dannyrecyclinginc.com/",
    "street_address": "1745 Walsh Ave.",
    "city": "Santa Clara",
    "region": "CA",
    "postal_code": "95050",
    "country": "United States",
    "phones": [],
    "emails": [],
    "whatsapp": [],
    "social_links": [],
    "opening_hours": "",
    "materials": [
      "Aluminum",
      "Copper"
    ],
    "material_prices": [],
    "description": ""
  },
  {
    "name": "Customer Service Is Our #1 Priority",
    "website": "https://www.abtruckrecycling.com/",
    "street_address": "5171               2863 Commercial St",
    "city": "San Diego",
    "region": "CA",
    "postal_code": "92113",
    "country": "United States",
    "phones": [
      "(619) 234-5171"
    ],
    "emails": [
      "92113619-234-5171abtruckrecycling@yahoo.com",
      "abtruckrecycling@yahoo.com"
    ],
    "whatsapp": [],
    "social_links": [],
    "opening_hours": "",
    "materials": [
      "Auto Parts"
    ],
    "material_prices": [],
    "description": "619-234-5171 - FREE estimates available. 90-day parts and labor guarantee. FREE Wi-Fi while you wait. ASE-certified technicians. CA auto repair."
  },
  {
    "name": "Metal recycling center in Los Angeles",
    "website": "https://forscrap.com/",
    "street_address": "20749 Prairie St",
    "city": "Chatsworth",
    "region": "CA",
    "postal_code": "91311",
    "country": "United States",
    "phones": [
      "(866) 567-2727",
      "(818) 357-7581"
    ],
    "emails": [
      "info@forscrap.com"
    ],
    "whatsapp": [],
    "social_links": [],
    "opening_hours": "",
    "materials": [
      "Copper",
      "Brass",
      "Steel",
      "Aluminum",
      "Scrap Metal",
      "Stainless Steel"
    ],
    "material_prices": [],
    "description": "Looking for the nearest scrap yard near you? Greener Recycling is your Los Angeles, CA mobile metal scrap yard to sell your copper, brass and other non-ferrous metals for TOP $. Call our recycling center for quote and pick up now: (866)567-27-27"
  },
  {
    "name": "Tapatio Auto and Truck Recycling - Rosamond Location",
    "website": "https://www.tapatioauto.com/rosamond-location/",
    "street_address": "2116 15th St",
    "city": "W\nRosamo",
    "region": "ND",
    "postal_code": "",
    "country": "United States",
    "phones": [
      "(800) 388-9134"
    ],
    "emails": [],
    "whatsapp": [],
    "social_links": [],
    "opening_hours": "",
    "materials": [],
    "material_prices": [],
    "description": "We are located in the city of Rosamond California, we have a broad range of recycled OEM parts from most manufacturers, we use technology to lower costs."
  },
  {
    "name": "Westside Auto Recycling!",
    "website": "https://www.westsideautorecycling.com/",
    "street_address": "",
    "city": "",
    "region": "",
    "postal_code": "",
    "country": "United States",
    "phones": [
      "(310) 473-3221",
      "(800) 586-5869"
    ],
    "emails": [
      "westsideautorecycling@gmail.com"
    ],
    "whatsapp": [],
    "social_links": [],
    "opening_hours": "",
    "materials": [],
    "material_prices": [],
    "description": "At Westside Auto Recycling, we have over 25 years of experience. We pay top dollar for your cars, trucks, vans, and SUV's. Call 310-473-3221 today."
  },
  {
    "name": "Trusted Scrap Metal Recycling in San Diego, CA",
    "website": "https://sandiegocountyrecycling.com/metal-recycling",
    "street_address": "3974 Spring Drive",
    "city": "Spring Valley",
    "region": "CA",
    "postal_code": "91977",
    "country": "United States",
    "phones": [
      "(619) 741-9780"
    ],
    "emails": [],
    "whatsapp": [],
    "social_links": [],
    "opening_hours": "",
    "materials": [
      "Scrap Metal",
      "Iron"
    ],
    "material_prices": [],
    "description": "At San Diego County Recycling, we believe in responsible metal recycling. Reach out to our team today in San Diego, CA, for more helpful services."
  },
  {
    "name": "circosta@circostametals.com",
    "website": "https://www.circostametals.com/services/",
    "street_address": "",
    "city": "",
    "region": "",
    "postal_code": "",
    "country": "United States",
    "phones": [
      "(415) 282-8568"
    ],
    "emails": [
      "circosta@circostametals.com"
    ],
    "whatsapp": [],
    "social_links": [],
    "opening_hours": "",
    "materials": [
      "Aluminum",
      "Scrap Metal",
      "Iron"
    ],
    "material_prices": [],
    "description": "Explore Circosta Iron & Metal's scrap metal recycling services in San Francisco, Northern California. We handle ferrous, non-ferrous metals."
  },
  {
    "name": "Ace Auto Wrecking",
    "website": "https://iscrapapp.com/yards/us-california-sacramento-ace-auto-wrecking/",
    "street_address": "75\nFire Wire\nForktruck Battery\nFSX 414\nFuses\nGold\nHard Drive Boards\nHard Drives\nHard Drives without Boards\nHastelloy Solids\nHastelloy Turnings\nHeliax Wire\nHigh Speed Steel\nHousewire\nIncomplete Car\nInconel\nInconel 792\nInconel 800\nInconel 825\nInk Cartridges\nInsulated Aluminum Wire\nInsulated Copper Cable\nInsulated Copper Wire\nInsulated Steel BX\nInvar\nJunkshop Extrusion\nKeyboard",
    "city": "s\nKov",
    "region": "AR",
    "postal_code": "",
    "country": "United States",
    "phones": [
      "(916) 443-8299"
    ],
    "emails": [],
    "whatsapp": [],
    "social_links": [],
    "opening_hours": "",
    "materials": [
      "Battery",
      "Copper",
      "Brass",
      "Steel",
      "Catalytic Converter",
      "Aluminum",
      "Iron",
      "Stainless Steel",
      "Scrap Metal",
      "Lead"
    ],
    "material_prices": [],
    "description": "Ace Auto Wrecking A Scrap Metal Yard and An Auto Salvage Yard in Sacramento, California Carries Various Car Parts and Auto Salvage Vehicles"
  },
  {
    "name": "Ranch Town Recycling Center",
    "website": "https://iscrapapp.com/yards/us-california-san-jose-ranch-town-recycling-center/",
    "street_address": "75\nFire Wire\nForktruck Battery\nFSX 414\nFuses\nGold\nHard Drive Boards\nHard Drives\nHard Drives without Boards\nHastelloy Solids\nHastelloy Turnings\nHeliax Wire\nHigh Speed Steel\nHousewire\nIncomplete Car\nInconel\nInconel 792\nInconel 800\nInconel 825\nInk Cartridges\nInsulated Aluminum Wire\nInsulated Copper Cable\nInsulated Copper Wire\nInsulated Steel BX\nInvar\nJunkshop Extrusion\nKeyboard",
    "city": "s\nKov",
    "region": "AR",
    "postal_code": "",
    "country": "United States",
    "phones": [],
    "emails": [],
    "whatsapp": [],
    "social_links": [],
    "opening_hours": "",
    "materials": [
      "Battery",
      "Copper",
      "Appliance",
      "Brass",
      "Steel",
      "Catalytic Converter",
      "Aluminum",
      "Iron",
      "Stainless Steel",
      "Scrap Metal"
    ],
    "material_prices": [],
    "description": "Ranch Town Recycling Center, Scrap Metal Yard in San Jose, California"
  },
  {
    "name": "Quality Used Engines, Transmissions, Body Panels Parts. Los Angeles, CA",
    "website": "https://abautodismantling.com/",
    "street_address": "90 day warranty. Our elect",
    "city": "ric",
    "region": "AL",
    "postal_code": "",
    "country": "United States",
    "phones": [
      "(323) 221-2400"
    ],
    "emails": [
      "323-221-2400emailabwreckingyard@gmail.comopening",
      "abwreckingyard@gmail.com",
      "emailabwreckingyard@gmail.com"
    ],
    "whatsapp": [],
    "social_links": [],
    "opening_hours": "",
    "materials": [
      "Auto Parts"
    ],
    "material_prices": [],
    "description": "Engines, transmissions, break systems, suspension, electrical, body panels, tires, wheels, fuel systems, AC and Heating"
  },
  {
    "name": "Tapatio Auto and Truck Recycling - San Diego Locations",
    "website": "https://www.tapatioauto.com/san-diego-locations/",
    "street_address": "2327 Siempre Viva Ct",
    "city": "San Diego",
    "region": "CA",
    "postal_code": "92154",
    "country": "United States",
    "phones": [
      "(800) 388-9134"
    ],
    "emails": [],
    "whatsapp": [],
    "social_links": [],
    "opening_hours": "",
    "materials": [],
    "material_prices": [],
    "description": "We are located in the city of San Diego California, and we have 3 locations for your convenience including a pick your own used part facility."
  },
  {
    "name": "Downtownmetals",
    "website": "http://www.downtownmetals.com/",
    "street_address": "526 S Alameda St.",
    "city": "Los Angeles",
    "region": "CA",
    "postal_code": "90013",
    "country": "United States",
    "phones": [],
    "emails": [],
    "whatsapp": [],
    "social_links": [],
    "opening_hours": "",
    "materials": [
      "Aluminum"
    ],
    "material_prices": [],
    "description": "Welcome to Downtown Metals and Recycling Center. We are your local CRV Recycling \nCenter. We Offer Competitive Pricing and  Outstanding Customer Service. \nGive us a call or come by and recycle your aluminum cans and plastic and \nglass bottles."
  },
  {
    "name": "Scrap Metal Stores | Department of Public Safety",
    "website": "https://www.azdps.gov/services/enforcement-services/scrap/stores",
    "street_address": "2222 W. Encanto Blvd.",
    "city": "Phoenix",
    "region": "AZ",
    "postal_code": "85009",
    "country": "United States",
    "phones": [],
    "emails": [],
    "whatsapp": [],
    "social_links": [],
    "opening_hours": "",
    "materials": [
      "Appliance",
      "Copper",
      "Iron",
      "Scrap Metal"
    ],
    "material_prices": [],
    "description": "Search by Store City"
  },
  {
    "name": "Metal Recycling Services",
    "website": "https://industrialmetalservice.com/metal-recycling/",
    "street_address": "260 Phelan Avenue",
    "city": "San Jose",
    "region": "CA",
    "postal_code": "95112",
    "country": "United States",
    "phones": [],
    "emails": [
      "metalsales@industrialmetalservice.com"
    ],
    "whatsapp": [],
    "social_links": [],
    "opening_hours": "",
    "materials": [
      "Copper",
      "Brass",
      "Steel",
      "Aluminum",
      "Precious Metals",
      "Scrap Metal",
      "Stainless Steel",
      "Zinc"
    ],
    "material_prices": [],
    "description": "Industrial Metal Service leads in sustainable practices. Explore our Metal Recycling solutions, contributing to a greener, more efficient future."
  },
  {
    "name": "Autobahn BMW & Porsche Parts Dismantler",
    "website": "http://www.autobahnparts.com/",
    "street_address": "444 Vernon Way",
    "city": "El Cajon",
    "region": "CA",
    "postal_code": "92020",
    "country": "United States",
    "phones": [],
    "emails": [
      "sean@autobahnparts.com",
      "mike@autobahnparts.com",
      "john@autobahnparts.com"
    ],
    "whatsapp": [],
    "social_links": [],
    "opening_hours": "",
    "materials": [],
    "material_prices": [],
    "description": ""
  },
  {
    "name": "Arizona JUNKYARDS & SALVAGE YARDS",
    "website": "https://www.rustysautosalvage.com/arizona.html",
    "street_address": "",
    "city": "",
    "region": "",
    "postal_code": "",
    "country": "United States",
    "phones": [
      "(866) 439-4401"
    ],
    "emails": [],
    "whatsapp": [],
    "social_links": [],
    "opening_hours": "",
    "materials": [],
    "material_prices": [],
    "description": "Our network of Arizona junkyards and auto salvage yards will pay you cash for your junk car on the spot and offer free junk car removal in all of AZ."
  },
  {
    "name": "Metal Recycling﻿",
    "website": "https://www.nxtsteprecycling.com/metal-recycling",
    "street_address": "3 Certification\n  \n\nButton\n\n\n\n\n\n\n    \n\n  HIPAA Compliant\n  \n\nButton\n\n\n\n\n\n\n    \n\n  GLBA COMPLIANT\n  \n\nButton\n\n\n\n\n\n\n\n\n\n\n\n\n\n\n\n\n\n\n\n   \n      Take the Next Step IN Secure Metal Recycling\n\n\n We make e-wast",
    "city": "e dispos",
    "region": "AL",
    "postal_code": "",
    "country": "United States",
    "phones": [
      "(408) 896-6200",
      "(692) 934-6918"
    ],
    "emails": [],
    "whatsapp": [],
    "social_links": [],
    "opening_hours": "",
    "materials": [
      "Battery",
      "Copper",
      "Brass",
      "Steel",
      "Electronic",
      "Aluminum",
      "Precious Metals",
      "Iron",
      "Scrap Metal",
      "Stainless Steel"
    ],
    "material_prices": [],
    "description": "Secure metal recycling & precious metals recovery services. Contact us for compliant solutions today!"
  },
  {
    "name": "Sims Metal - San Jose, California",
    "website": "https://scrapvisor.com/charron-metals-corporation/",
    "street_address": "30104 Indust",
    "city": "rial Pk",
    "region": "WY",
    "postal_code": "",
    "country": "United States",
    "phones": [
      "(408) 727-5279"
    ],
    "emails": [],
    "whatsapp": [],
    "social_links": [],
    "opening_hours": "",
    "materials": [
      "Copper",
      "Brass",
      "Steel",
      "Electronic",
      "Aluminum",
      "Iron",
      "Stainless Steel",
      "Scrap Metal",
      "Lead",
      "Zinc"
    ],
    "material_prices": [],
    "description": "Charron Metals Corporation in San Jose – your trusted scrap metal yard. Find our contact information, view companies on the map, check the metals purchased by the company, and explore our company services. Competitive prices and fair terms."
  },
  {
    "name": "RECYCLINGREDEFINED",
    "website": "https://www.sarecycling.com/",
    "street_address": "2411 North Glassell Street",
    "city": "Orange",
    "region": "CA",
    "postal_code": "92865",
    "country": "United States",
    "phones": [
      "(800) 468-7272"
    ],
    "emails": [],
    "whatsapp": [],
    "social_links": [],
    "opening_hours": "",
    "materials": [
      "Copper",
      "Appliance",
      "Brass",
      "Steel",
      "Aluminum",
      "Iron",
      "Scrap Metal",
      "Lead"
    ],
    "material_prices": [],
    "description": "Your car still has VALUE. If you have an old car or damaged car that you’re ready to get rid of. WE WILL PAY CASH FOR IT TODAY!"
  },
  {
    "name": "Metal Recycling Los Angeles – Atlas Iron & Metal Co.",
    "website": "https://atlasironandmetal.com/metal-recycling-los-angeles/",
    "street_address": "10019 S Alameda Street",
    "city": "Los Angeles",
    "region": "CA",
    "postal_code": "90002",
    "country": "United States",
    "phones": [
      "(800) 540-5184",
      "(566) 518-4800",
      "(323) 566-5184"
    ],
    "emails": [],
    "whatsapp": [],
    "social_links": [],
    "opening_hours": "",
    "materials": [
      "Copper",
      "Appliance",
      "Steel",
      "Aluminum",
      "Iron",
      "Scrap Metal",
      "Stainless Steel"
    ],
    "material_prices": [],
    "description": "Atlas Iron & Metal Company, Inc provides stainless steel scrap yard recycling services in Los Angeles. We buy stainless steel, debris, motors, appliances & automotive scrap for cash."
  },
  {
    "name": "Sims Metal – SacramentoCLOSED NOW",
    "website": "https://iscrapapp.com/yards/us-california-sacramento-sims-metal-mgmt-sacramento/",
    "street_address": "75\nFire Wire\nForktruck Battery\nFSX 414\nFuses\nGold\nHard Drive Boards\nHard Drives\nHard Drives without Boards\nHastelloy Solids\nHastelloy Turnings\nHeliax Wire\nHigh Speed Steel\nHousewire\nIncomplete Car\nInconel\nInconel 792\nInconel 800\nInconel 825\nInk Cartridges\nInsulated Aluminum Wire\nInsulated Copper Cable\nInsulated Copper Wire\nInsulated Steel BX\nInvar\nJunkshop Extrusion\nKeyboard",
    "city": "s\nKov",
    "region": "AR",
    "postal_code": "",
    "country": "United States",
    "phones": [
      "(916) 444-3380"
    ],
    "emails": [],
    "whatsapp": [],
    "social_links": [],
    "opening_hours": "",
    "materials": [
      "Battery",
      "Copper",
      "Brass",
      "Steel",
      "Catalytic Converter",
      "Aluminum",
      "Iron",
      "Stainless Steel",
      "Scrap Metal",
      "Lead"
    ],
    "material_prices": [],
    "description": "Sims Metal - Sacramento, Scrap Metal Yard in Sacramento, California"
  },
  {
    "name": "Services",
    "website": "https://atlasironandmetal.com/services/",
    "street_address": "10019 S Alameda Street",
    "city": "Los Angeles",
    "region": "CA",
    "postal_code": "90002",
    "country": "United States",
    "phones": [
      "(800) 540-5184",
      "(566) 518-4800",
      "(323) 566-5184"
    ],
    "emails": [],
    "whatsapp": [],
    "social_links": [],
    "opening_hours": "",
    "materials": [
      "Copper",
      "Steel",
      "Aluminum",
      "Iron",
      "Scrap Metal"
    ],
    "material_prices": [],
    "description": "Atlas Iron & Metal Co., a scrapyard, provides metal scrap yard recycling services in Los Angeles. Recycle aluminum, metal, copper, stainless steel & automotive scrap."
  },
  {
    "name": "Capitol City Recycling",
    "website": "https://iscrapapp.com/yards/us-california-sacramento-capitol-city-recycling/",
    "street_address": "75\nFire Wire\nForktruck Battery\nFSX 414\nFuses\nGold\nHard Drive Boards\nHard Drives\nHard Drives without Boards\nHastelloy Solids\nHastelloy Turnings\nHeliax Wire\nHigh Speed Steel\nHousewire\nIncomplete Car\nInconel\nInconel 792\nInconel 800\nInconel 825\nInk Cartridges\nInsulated Aluminum Wire\nInsulated Copper Cable\nInsulated Copper Wire\nInsulated Steel BX\nInvar\nJunkshop Extrusion\nKeyboard",
    "city": "s\nKov",
    "region": "AR",
    "postal_code": "",
    "country": "United States",
    "phones": [],
    "emails": [],
    "whatsapp": [],
    "social_links": [],
    "opening_hours": "",
    "materials": [
      "Battery",
      "Copper",
      "Brass",
      "Steel",
      "Catalytic Converter",
      "Aluminum",
      "Iron",
      "Stainless Steel",
      "Scrap Metal",
      "Lead"
    ],
    "material_prices": [],
    "description": "Capitol City Recycling, Scrap Metal Yard in Sacramento, California"
  },
  {
    "name": "Nevada JUNKYARDS & SALVAGE YARDS",
    "website": "https://www.rustysautosalvage.com/nevada.html",
    "street_address": "1030    Ford",
    "city": "Edge  Ye",
    "region": "AR",
    "postal_code": "",
    "country": "United States",
    "phones": [
      "(866) 439-4401"
    ],
    "emails": [],
    "whatsapp": [],
    "social_links": [],
    "opening_hours": "",
    "materials": [],
    "material_prices": [],
    "description": "Our network of Nevada junkyards and auto salvage yards will pay you cash for your junk car on the spot and offer free junk car removal in all of NV."
  },
  {
    "name": "Metal Recycling Los Angeles",
    "website": "https://www.tmscrapmetals.com/metal-recycling-los-angeles/",
    "street_address": "11092 Tuxford St",
    "city": "Sun Valley",
    "region": "CA",
    "postal_code": "91352",
    "country": "United States",
    "phones": [
      "(818) 771-0510"
    ],
    "emails": [
      "771-0510info@tmscrapmetals.comhours"
    ],
    "whatsapp": [],
    "social_links": [],
    "opening_hours": "",
    "materials": [
      "Copper",
      "Appliance",
      "Brass",
      "Steel",
      "Aluminum",
      "Iron",
      "Scrap Metal",
      "Stainless Steel"
    ],
    "material_prices": [],
    "description": "Metal recycling in Los Angeles, CA. We pay top prices for scrap metal. Need your scrap picked up? We offer mobile recycling and can come to you. Call today!"
  },
  {
    "name": "JunkYards inSan Jose (California)",
    "website": "https://usjunkyards.com/st-california/cy-santa-clara/ci-san-jose/",
    "street_address": "",
    "city": "",
    "region": "",
    "postal_code": "",
    "country": "United States",
    "phones": [
      "(888) 871-4488",
      "(888) 853-0481"
    ],
    "emails": [],
    "whatsapp": [],
    "social_links": [],
    "opening_hours": "",
    "materials": [
      "Battery",
      "Scrap Metal",
      "Auto Parts"
    ],
    "material_prices": [],
    "description": "Explore detailed information on JunkYards near you in San Jose, CA. Visit this page to locate car salvage yards where you can sell your car or find auto parts."
  },
  {
    "name": "Late Model Used Auto Parts",
    "website": "https://www.sanbenitoauto.com/",
    "street_address": "",
    "city": "Hollister",
    "region": "CA",
    "postal_code": "95023",
    "country": "United States",
    "phones": [
      "(831) 637-5795"
    ],
    "emails": [],
    "whatsapp": [],
    "social_links": [],
    "opening_hours": "Office Hours: Mon - Fri 8:00am - 5:00pm Sat 8:00am - 4:00pm pst",
    "materials": [
      "Auto Parts"
    ],
    "material_prices": [],
    "description": ""
  },
  {
    "name": "Scrap Metal Recycling",
    "website": "https://smartrecycling.com/",
    "street_address": "414 West C Street",
    "city": "Wilmington",
    "region": "CA",
    "postal_code": "90744",
    "country": "United States",
    "phones": [
      "(310) 834-4861",
      "(310) 830-8277"
    ],
    "emails": [],
    "whatsapp": [],
    "social_links": [],
    "opening_hours": "",
    "materials": [
      "Copper",
      "Lead",
      "Scrap Metal"
    ],
    "material_prices": [],
    "description": "SmartRecycling.com offers efficient and fair industrial scrap metal recycling services. Our team is responsive and professional. Call today! 310-830-8277"
  },
  {
    "name": "Aluminum Recycling",
    "website": "https://consolidatedresources.com/aluminum-recycling-az/",
    "street_address": "4849 W. Missouri Ave.",
    "city": "Glendale",
    "region": "AZ",
    "postal_code": "85301",
    "country": "United States",
    "phones": [
      "(623) 931-5009"
    ],
    "emails": [],
    "whatsapp": [],
    "social_links": [],
    "opening_hours": "",
    "materials": [
      "Copper",
      "Brass",
      "Steel",
      "Electronic",
      "Aluminum",
      "Stainless Steel",
      "Scrap Metal",
      "Lead",
      "Zinc"
    ],
    "material_prices": [],
    "description": "We provide comprehensive industrial recycling solutions for a wide variety of materials including aluminum."
  },
  {
    "name": "Understanding the Scrap Metal Recycling Process in California",
    "website": "https://www.ptmetals.com/blog/scrap-metal-recycling-process-california/",
    "street_address": "38252213 Tyler Ave",
    "city": "South El Monte",
    "region": "CA",
    "postal_code": "91733",
    "country": "United States",
    "phones": [
      "(626) 443-8921"
    ],
    "emails": [
      "91733emailscrap@ptmetals.comhoursmon",
      "scrap@ptmetals.com"
    ],
    "whatsapp": [],
    "social_links": [],
    "opening_hours": "",
    "materials": [
      "Copper",
      "Appliance",
      "Brass",
      "Steel",
      "Electronic",
      "Catalytic Converter",
      "Aluminum",
      "Precious Metals",
      "Iron",
      "Stainless Steel"
    ],
    "material_prices": [],
    "description": "The scrap metal recycling process in California is an important part of how we manage waste and protect the environment. Understanding this process helps us"
  },
  {
    "name": "Gallery",
    "website": "https://atlasironandmetal.com/gallery/",
    "street_address": "10019 S Alameda Street",
    "city": "Los Angeles",
    "region": "CA",
    "postal_code": "90002",
    "country": "United States",
    "phones": [
      "(800) 540-5184",
      "(566) 518-4800",
      "(323) 566-5184"
    ],
    "emails": [],
    "whatsapp": [],
    "social_links": [],
    "opening_hours": "",
    "materials": [
      "Copper",
      "Steel",
      "Iron",
      "Scrap Metal",
      "Stainless Steel"
    ],
    "material_prices": [],
    "description": "View an image gallery provided by Atlas Iron & Metal Co. to see scrap yard metal recycling & disposal services in Los Angeles. We buy steel, aluminum, cooper & more."
  },
  {
    "name": "Phoenix Metal Recycling - Davis Metals",
    "website": "https://davismetals.com/",
    "street_address": "3322 E. Washington Street",
    "city": "Phoenix",
    "region": "AZ",
    "postal_code": "85034",
    "country": "United States",
    "phones": [
      "(602) 267-7208",
      "(123) 456-7890"
    ],
    "emails": [
      "info@davismetals.com"
    ],
    "whatsapp": [],
    "social_links": [],
    "opening_hours": "",
    "materials": [
      "Copper",
      "Brass",
      "Steel",
      "Aluminum",
      "Iron",
      "Scrap Metal",
      "Stainless Steel"
    ],
    "material_prices": [],
    "description": "Davis Metals & Salvage is Arizona's premier steel supply and scrap metal recycling center in Phoenix. From Sheet and Bar Steel to Tubing and Expanded Metals."
  },
  {
    "name": "JunkYards inSan Francisco (California)",
    "website": "https://usjunkyards.com/st-california/cy-san-francisco/ci-san-francisco/",
    "street_address": "0 Reviews\n\n\n                2895 3rd St",
    "city": "San Francis",
    "region": "CO",
    "postal_code": "",
    "country": "United States",
    "phones": [
      "(888) 871-4488",
      "(888) 853-0481"
    ],
    "emails": [],
    "whatsapp": [],
    "social_links": [],
    "opening_hours": "",
    "materials": [
      "Auto Parts",
      "Scrap Metal"
    ],
    "material_prices": [],
    "description": "Explore detailed information on JunkYards near you in San Francisco, CA. Visit this page to locate car salvage yards where you can sell your car or find auto parts."
  },
  {
    "name": "San Francisco Salvage Yards, CA",
    "website": "https://iscrapapp.com/scrap-yards/san-francisco-ca-salvage-yards/",
    "street_address": "2730 Peralta Street",
    "city": "Oakla",
    "region": "ND",
    "postal_code": "",
    "country": "United States",
    "phones": [],
    "emails": [],
    "whatsapp": [],
    "social_links": [],
    "opening_hours": "",
    "materials": [
      "Battery",
      "Auto Parts",
      "Copper",
      "Brass",
      "Steel",
      "Catalytic Converter",
      "Aluminum",
      "Iron",
      "Stainless Steel",
      "Lead"
    ],
    "material_prices": [],
    "description": "Make money from your car by scrapping it for cash. Find the auto part you need for repair and scrap metal prices with San Francisco salvage yards."
  },
  {
    "name": "Copper Recycling in San Diego",
    "website": "https://www.industrialscrapmetal.com/california/san-diego-copper-recycling/",
    "street_address": "2 copper.\n\n\nInsulated Heavy wire is uncommon but still recycled.\n\n\nRomex wire is used in wiring homes and is considered a mid-recovery insulated grade.\n\n\nCopper Radiators are a combination of copper and brass. These are less commonly used in modern vehicles. \n\n\nCopper Bearing is low recovery copper that includes motors and other electronic devices. Prices are extremely lower than other copper items.\n\n\nOur copper processing is fueled by materials that we purchase from businesses in a variety of industries. We make efforts to deal with indust",
    "city": "ries arou",
    "region": "ND",
    "postal_code": "",
    "country": "United States",
    "phones": [],
    "emails": [
      "billy@warank.com"
    ],
    "whatsapp": [],
    "social_links": [],
    "opening_hours": "",
    "materials": [
      "Copper",
      "Brass",
      "Steel",
      "Electronic",
      "Aluminum",
      "Precious Metals",
      "Iron",
      "Scrap Metal",
      "Lead"
    ],
    "material_prices": [],
    "description": "Industrial Scrap Metal offers Copper Recycling in San Diego, CA. Form of Copper recycling are Copper Solids Recycled,  Copper Sludge Recycled, Copper Residue Recycled."
  },
  {
    "name": "Scrap Metal Recycling San Diego - Smart Recycling Inc.",
    "website": "https://smartrecycling.com/scrap-metal-recycling-san-diego/",
    "street_address": "414 West C Street",
    "city": "Wilmington",
    "region": "CA",
    "postal_code": "90744",
    "country": "United States",
    "phones": [
      "(310) 834-4861",
      "(310) 830-8277"
    ],
    "emails": [],
    "whatsapp": [],
    "social_links": [],
    "opening_hours": "",
    "materials": [
      "Copper",
      "Brass",
      "Steel",
      "Aluminum",
      "Iron",
      "Scrap Metal",
      "Lead"
    ],
    "material_prices": [],
    "description": "San Diego Scrap Metal Recycling"
  },
  {
    "name": "Affordable Auto Parts at Discount Rates!",
    "website": "http://americaautodismantling.com/",
    "street_address": "1180 B Heritage Road",
    "city": "San Diego",
    "region": "CA",
    "postal_code": "92154",
    "country": "United States",
    "phones": [
      "(619) 661-1494"
    ],
    "emails": [
      "bassoraha4@gmail.com"
    ],
    "whatsapp": [],
    "social_links": [],
    "opening_hours": "",
    "materials": [
      "Auto Parts"
    ],
    "material_prices": [],
    "description": ""
  },
  {
    "name": "Junk Scrap Yards in San Francisco",
    "website": "https://junkscrapyard.com/location/san-francisco/",
    "street_address": "3546\nWe Have Every Thing From Vw To Truck Parts. 65 To 95 Hard",
    "city": "To Fi",
    "region": "ND",
    "postal_code": "",
    "country": "United States",
    "phones": [
      "(415) 588-3546",
      "(415) 284-9514"
    ],
    "emails": [
      "mail@darwinmotors.com"
    ],
    "whatsapp": [],
    "social_links": [],
    "opening_hours": "",
    "materials": [
      "Auto Parts",
      "Scrap Metal"
    ],
    "material_prices": [],
    "description": "Junk Scrap Yards in San Francisco"
  },
  {
    "name": "Junk Scrap Yards in Sacramento",
    "website": "https://junkscrapyard.com/location/sacramento/",
    "street_address": "716 Bell Avenue",
    "city": "Sacramento",
    "region": "CA",
    "postal_code": "95838",
    "country": "United States",
    "phones": [
      "(916) 925-0458",
      "(916) 388-8350",
      "(916) 366-7470"
    ],
    "emails": [
      "brad@subwaytruckparts.com",
      "info@autogator.com",
      "sales@capitolimport.com"
    ],
    "whatsapp": [],
    "social_links": [],
    "opening_hours": "",
    "materials": [
      "Auto Parts",
      "Scrap Metal",
      "Stainless Steel",
      "Steel"
    ],
    "material_prices": [],
    "description": "Junk Scrap Yards in Sacramento"
  },
  {
    "name": "Auto Parts & Vehicle Dismantlers in Modesto, CA",
    "website": "https://junkyardpartsanddismantlers.com/",
    "street_address": "0751\n\n\n\n\n\n\nOUR LOCATION\n\n618 S 9th St",
    "city": "Modesto",
    "region": "CA",
    "postal_code": "95351",
    "country": "United States",
    "phones": [],
    "emails": [],
    "whatsapp": [],
    "social_links": [],
    "opening_hours": "",
    "materials": [
      "Auto Parts"
    ],
    "material_prices": [],
    "description": "Auto Parts & Vehicle Dismantlers in Modesto, CA - California Auto Parts & Auto Dismantlers. Call us at (209) 523-0751"
  },
  {
    "name": "Top 5 Scrap Metal Recycling in Los Angeles",
    "website": "https://generated.com/scrap-metal-recycling-los-angeles/",
    "street_address": "",
    "city": "",
    "region": "",
    "postal_code": "",
    "country": "United States",
    "phones": [
      "(602) 353-9411"
    ],
    "emails": [
      "informationinfo@generated.com",
      "info@generated.com",
      "dispatch@generated.com"
    ],
    "whatsapp": [],
    "social_links": [],
    "opening_hours": "",
    "materials": [
      "Aluminum",
      "Scrap Metal",
      "Iron",
      "Steel"
    ],
    "material_prices": [],
    "description": "In 2017, the scrap metal recycling industry in the United States reached a total value of over $45 billion. This combined worth takes into account the two"
  },
  {
    "name": "(775) 461-1280",
    "website": "http://www.recyclingnevada.com/services/",
    "street_address": "1280\n\n\n\n\n\n\n\n\n\n\n\n\n\n\n\n\nOverviewServicesContact Us\n\n\n\n\n                    \n                        Universal Service Recycling5855 Sheep Dr.",
    "city": "Carson City",
    "region": "NV",
    "postal_code": "89701",
    "country": "United States",
    "phones": [],
    "emails": [],
    "whatsapp": [],
    "social_links": [],
    "opening_hours": "",
    "materials": [
      "Copper",
      "Appliance",
      "Brass",
      "Steel",
      "Catalytic Converter",
      "Aluminum",
      "Iron",
      "Stainless Steel",
      "Scrap Metal",
      "Lead"
    ],
    "material_prices": [],
    "description": "Universal Service Recycling Provides Scrap Metal Recycling Services Throughout the Carson City, NV Area."
  },
  {
    "name": "Junkyards & Auto Salvagein Los Angeles, CA",
    "website": "https://preferredjunkyard.com/california/los-angeles/",
    "street_address": "2531 Sawtelle Blvd",
    "city": "Los Angeles",
    "region": "CA",
    "postal_code": "90064",
    "country": "United States",
    "phones": [],
    "emails": [],
    "whatsapp": [],
    "social_links": [],
    "opening_hours": "",
    "materials": [
      "Auto Parts",
      "Iron"
    ],
    "material_prices": [],
    "description": "Find Trusted Junkyards and Auto Salvage Yards in Los Angeles, California that Buy Junk Cars and Sell Reliable Used Auto and Truck Parts."
  },
  {
    "name": "Professional Scrap Metal Removal Services – Fast, Eco‑Friendly & Hassle‑Free",
    "website": "https://www.movenhaul.com/scrap-metal-removal",
    "street_address": "6 Expert - Waste Fast",
    "city": "AboutServicesBo",
    "region": "OK",
    "postal_code": "",
    "country": "United States",
    "phones": [
      "(415) 416-0817"
    ],
    "emails": [
      "info@movenhaul.com",
      "416-0817info@movenhaul.common"
    ],
    "whatsapp": [],
    "social_links": [],
    "opening_hours": "",
    "materials": [
      "Appliance",
      "Copper",
      "Electronic",
      "Iron",
      "Scrap Metal"
    ],
    "material_prices": [],
    "description": "Need scrap metal removal in San Francisco? MovenHaul delivers fast, eco‑friendly hauling for appliances, construction debris, and all types of metal scrap—safe, affordable, and same‑day service."
  },
  {
    "name": "A & R Scrap Metal Recycling CompanyA Scrap Metal Buyer in South San Francisco, California",
    "website": "https://www.armetalrecyclers.com/scrap-metal-buyer-south-san-francisco-california.html",
    "street_address": "",
    "city": "",
    "region": "",
    "postal_code": "",
    "country": "United States",
    "phones": [
      "(713) 410-8333"
    ],
    "emails": [],
    "whatsapp": [],
    "social_links": [],
    "opening_hours": "",
    "materials": [
      "Scrap Metal"
    ],
    "material_prices": [],
    "description": "A & R Scrap Metal Recycling Company, scrap metal buyer in South San Francisco, California, scrap metal recycler, recycle scrap metal, scrap metal prices, scrap buyer, South San Francisco, California, CO"
  },
  {
    "name": "Ranch Town Metal Recycling Center",
    "website": "https://locator.wastebits.com/location/ranch-town-metal-recycling-center",
    "street_address": "95126\n\n\n\n\n\n\n\n\nWebsite\n\n\n\n\n\n\n\nCall\n\n\n\n\n\n\n\nDirections\n\n\n\n\n\n\n\n\n\n\nOverview\nRanch Town Metal Recycling Center is located at 775 Lincoln Ave",
    "city": "San Jose",
    "region": "CA",
    "postal_code": "95126",
    "country": "United States",
    "phones": [
      "(408) 292-3333"
    ],
    "emails": [],
    "whatsapp": [],
    "social_links": [],
    "opening_hours": "",
    "materials": [
      "Appliance",
      "Iron",
      "Electronic"
    ],
    "material_prices": [],
    "description": "Info about Ranch Town Metal Recycling Center: The recycler located at 775 Lincoln Ave, San Jose, CA 95126."
  },
  {
    "name": "A-German Auto parts & servicein San Jose",
    "website": "https://preferredjunkyard.com/california/san-jose/a-german-auto-parts-service/",
    "street_address": "301 San Jose Ave",
    "city": "San Jose",
    "region": "CA",
    "postal_code": "95125",
    "country": "United States",
    "phones": [
      "(408) 993-9711"
    ],
    "emails": [],
    "whatsapp": [],
    "social_links": [],
    "opening_hours": "",
    "materials": [
      "Auto Parts"
    ],
    "material_prices": [],
    "description": "View the main reviews of A-German Auto parts & service in San Jose and get all the contact information, location details and opening hours."
  },
  {
    "name": "Industries",
    "website": "https://atlasironandmetal.com/industries/",
    "street_address": "10019 S Alameda Street",
    "city": "Los Angeles",
    "region": "CA",
    "postal_code": "90002",
    "country": "United States",
    "phones": [
      "(800) 540-5184",
      "(566) 518-4800",
      "(323) 566-5184"
    ],
    "emails": [],
    "whatsapp": [],
    "social_links": [],
    "opening_hours": "",
    "materials": [
      "Copper",
      "Brass",
      "Steel",
      "Electronic",
      "Aluminum",
      "Iron",
      "Scrap Metal"
    ],
    "material_prices": [],
    "description": "Atlas Iron & Metal Co. provides metal scrap yard recycling services in Los Angeles to industries. Recycle wiring, metal, copper, stainless steel & automotive parts."
  },
  {
    "name": "Sims Metal",
    "website": "https://scrapvisor.com/exact-alloys/",
    "street_address": "30104 Indust",
    "city": "rial Pk",
    "region": "WY",
    "postal_code": "",
    "country": "United States",
    "phones": [
      "(916) 514-1098"
    ],
    "emails": [],
    "whatsapp": [],
    "social_links": [],
    "opening_hours": "",
    "materials": [
      "Copper",
      "Brass",
      "Steel",
      "Aluminum",
      "Iron",
      "Stainless Steel",
      "Scrap Metal",
      "Lead",
      "Zinc"
    ],
    "material_prices": [],
    "description": "Exact Alloys in Sacramento – your trusted scrap metal yard. Find our contact information, view companies on the map, check the metals purchased by the company, and explore our company services. Competitive prices and fair terms."
  },
  {
    "name": "JunkYards and Salvage Yards inNevada (NV)",
    "website": "https://usjunkyards.com/st-nevada/",
    "street_address": "178 Reviews\n\n\n1705 Marietta Way",
    "city": "Spar",
    "region": "KS",
    "postal_code": "",
    "country": "United States",
    "phones": [
      "(888) 853-0481"
    ],
    "emails": [],
    "whatsapp": [],
    "social_links": [],
    "opening_hours": "",
    "materials": [
      "Auto Parts",
      "Copper",
      "Catalytic Converter",
      "Scrap Metal"
    ],
    "material_prices": [],
    "description": "Find the nearest car junkyards and salvage yards near you in Nevada ⚡ USJunkYards provides a list of all salvage yards where you can dispose of your car and get Cash."
  },
  {
    "name": "Junkyards in Nevada",
    "website": "https://www.usedpart.us/used-auto-parts/nevada/",
    "street_address": "",
    "city": "",
    "region": "",
    "postal_code": "",
    "country": "United States",
    "phones": [
      "(800) 646-4790"
    ],
    "emails": [
      "sales@usedpart.us"
    ],
    "whatsapp": [],
    "social_links": [],
    "opening_hours": "",
    "materials": [
      "Battery",
      "Auto Parts"
    ],
    "material_prices": [],
    "description": "✓ IN STOCKMarshall's Auto Parts IncGet a PriceCall For A QuoteAbout This Yard"
  },
  {
    "name": "Standard Auto Recycling",
    "website": "http://standardautorecycling.com/",
    "street_address": "2000 Nissan. I gave",
    "city": "it sever",
    "region": "AL",
    "postal_code": "",
    "country": "United States",
    "phones": [
      "(555) 428-0940"
    ],
    "emails": [],
    "whatsapp": [],
    "social_links": [],
    "opening_hours": "",
    "materials": [
      "Auto Parts"
    ],
    "material_prices": [],
    "description": "Serving cheap auto parts to the greater San Diego area with over 40 years of experience, Reliable and cheap auto parts."
  },
  {
    "name": "All Ferrous Grades Recycling",
    "website": "https://consolidatedresources.com/ferrous-grades-recycling-az/",
    "street_address": "4849 W. Missouri Ave.",
    "city": "Glendale",
    "region": "AZ",
    "postal_code": "85301",
    "country": "United States",
    "phones": [
      "(623) 931-5009"
    ],
    "emails": [],
    "whatsapp": [],
    "social_links": [],
    "opening_hours": "",
    "materials": [
      "Copper",
      "Appliance",
      "Brass",
      "Steel",
      "Electronic",
      "Aluminum",
      "Iron",
      "Stainless Steel",
      "Scrap Metal",
      "Lead"
    ],
    "material_prices": [],
    "description": "We specialize in industrial and commercial recycling of all ferrous grade metals, which means that if your business produces ferrous scrap, we can help!"
  },
  {
    "name": "Where to Recycle Scrap Metal in Los Angeles",
    "website": "https://www.ptmetals.com/blog/where-to-recycle-scrap-metals-los-angeles/",
    "street_address": "38252213 Tyler Ave",
    "city": "South El Monte",
    "region": "CA",
    "postal_code": "91733",
    "country": "United States",
    "phones": [],
    "emails": [
      "91733emailscrap@ptmetals.comhoursmon",
      "scrap@ptmetals.com"
    ],
    "whatsapp": [],
    "social_links": [],
    "opening_hours": "",
    "materials": [
      "Auto Parts",
      "Copper",
      "Appliance",
      "Brass",
      "Steel",
      "Electronic",
      "Catalytic Converter",
      "Aluminum",
      "Precious Metals",
      "Iron"
    ],
    "material_prices": [],
    "description": "The best places to recycle scrap metal in Los Angeles include P&T Metals in South El Monte, SA Recycling with multiple locations, TM Scrap Metals in Sun"
  },
  {
    "name": "Tapatio Auto and Truck Recycling - Warranty and Refunds",
    "website": "https://www.tapatioauto.com/warranty-returns/",
    "street_address": "30 days warrantyELECTRICAL PARTSNo warranty is offered on elect",
    "city": "ric",
    "region": "AL",
    "postal_code": "",
    "country": "United States",
    "phones": [
      "(800) 388-9134"
    ],
    "emails": [],
    "whatsapp": [],
    "social_links": [],
    "opening_hours": "",
    "materials": [
      "Battery",
      "Auto Parts",
      "Electronic"
    ],
    "material_prices": [],
    "description": "90 days guarantees on: Engines, Transmissions and Axles, you can also purchase and extended warranty up to 1 Year, best warranty in the industry."
  },
  {
    "name": "Your Premier Destination for Used Parts",
    "website": "http://cypressautorecyclers.com/",
    "street_address": "1649 28th St",
    "city": "Oakland",
    "region": "CA",
    "postal_code": "94608",
    "country": "United States",
    "phones": [
      "(510) 451-3034",
      "(800) 573-7278"
    ],
    "emails": [
      "info@cypressautorecyclers.com"
    ],
    "whatsapp": [],
    "social_links": [],
    "opening_hours": "Mon - Fri 8am - 5pm Saturday/Sunday Closed",
    "materials": [
      "Auto Parts"
    ],
    "material_prices": [],
    "description": "Cypress Auto Salvage, Inc.: serving the Oakland, CA area with quality used parts"
  },
  {
    "name": "San Diego, California - 92104 Local Recycling Centers",
    "website": "https://recyclingcenters.org/California/San_Diego_92104_recycling_centers.php",
    "street_address": "92109\n                            \n\n\n\n\n\n\n\n\n\n\n\n\nE-Cycle Environmental\n\n\n\n                                                                    2966 E Victoria St",
    "city": "Compton",
    "region": "CA",
    "postal_code": "90221",
    "country": "United States",
    "phones": [],
    "emails": [],
    "whatsapp": [],
    "social_links": [],
    "opening_hours": "",
    "materials": [
      "Appliance",
      "Iron",
      "Electronic",
      "Scrap Metal"
    ],
    "material_prices": [],
    "description": "San Diego, California 92104 Local Recycling Centers and Recycling Information and Statistics"
  },
  {
    "name": "Hours of Operation (PST/PDT)",
    "website": "http://www.toyautomartca.com/",
    "street_address": "",
    "city": "Rancho Cordova",
    "region": "CA",
    "postal_code": "95742",
    "country": "United States",
    "phones": [
      "(916) 638-0440",
      "(916) 853-2084"
    ],
    "emails": [
      "erik@toyautomartca.com"
    ],
    "whatsapp": [],
    "social_links": [],
    "opening_hours": "",
    "materials": [
      "Auto Parts",
      "Iron"
    ],
    "material_prices": [],
    "description": "ToyAuto Mart: serving the Rancho Cordova, CA area with quality used parts"
  },
  {
    "name": "Southern California lead auto recyclerwith many decades of experience",
    "website": "https://www.tapatioauto.com/",
    "street_address": "2327 Siempre Viva Ct",
    "city": "San Diego",
    "region": "CA",
    "postal_code": "92154",
    "country": "United States",
    "phones": [
      "(800) 388-9134"
    ],
    "emails": [],
    "whatsapp": [],
    "social_links": [],
    "opening_hours": "",
    "materials": [
      "Auto Parts",
      "Iron",
      "Lead"
    ],
    "material_prices": [],
    "description": "Southern California lead used auto parts recycler with decades of experience, engines, transmisions, head lamps, hoods, radiator in San Diego & Rosamond."
  },
  {
    "name": "California Scrap Metal Buyers & Recycling Centers",
    "website": "https://scrapvisor.com/california/",
    "street_address": "0\n\n\n\n\n\n\n\n\nFNG Recycling and E-waste Handlers\n2711 N Wilmington Ave",
    "city": "Compton",
    "region": "CA",
    "postal_code": "90222",
    "country": "United States",
    "phones": [
      "(408) 842-2565",
      "(323) 794-9532",
      "(562) 410-7703"
    ],
    "emails": [],
    "whatsapp": [],
    "social_links": [],
    "opening_hours": "",
    "materials": [
      "Copper",
      "Brass",
      "Steel",
      "Catalytic Converter",
      "Aluminum",
      "Iron",
      "Stainless Steel",
      "Scrap Metal",
      "Lead",
      "Zinc"
    ],
    "material_prices": [],
    "description": "Find trusted scrap metal buyers and recycling centers in California. View up-to-date scrap metal prices, explore our interactive map of local scrap yards, and connect with reputable companies for fast and profitable scrap sales."
  },
  {
    "name": "SA Recycling Los Angeles Downtown",
    "website": "https://www.sarecycling.com/yard/sa-recycling-los-angeles-downtown/",
    "street_address": "2728 Long Beach Ave",
    "city": "Los Angeles",
    "region": "CA",
    "postal_code": "90058",
    "country": "United States",
    "phones": [
      "(323) 234-1883",
      "(800) 468-7272"
    ],
    "emails": [
      "inquiries.losangeles-downtown@sarecycling.com"
    ],
    "whatsapp": [],
    "social_links": [],
    "opening_hours": "",
    "materials": [
      "Copper",
      "Appliance",
      "Brass",
      "Steel",
      "Aluminum",
      "Iron",
      "Stainless Steel",
      "Scrap Metal",
      "Lead",
      "Zinc"
    ],
    "material_prices": [],
    "description": ""
  },
  {
    "name": "COMMERCIALINDUSTRIALWaste Recycling",
    "website": "https://nvsalvage.com/",
    "street_address": "130 W. Owens Ave.",
    "city": "North Las Vegas",
    "region": "NV",
    "postal_code": "89030",
    "country": "United States",
    "phones": [],
    "emails": [],
    "whatsapp": [],
    "social_links": [],
    "opening_hours": "",
    "materials": [
      "Auto Parts",
      "Appliance"
    ],
    "material_prices": [],
    "description": ""
  },
  {
    "name": "materials we buy or recycle",
    "website": "https://sandiegocountyrecycling.com/materials-we-buy/",
    "street_address": "3974 Spring Drive",
    "city": "Spring Valley",
    "region": "CA",
    "postal_code": "91977",
    "country": "United States",
    "phones": [
      "(619) 741-9780"
    ],
    "emails": [],
    "whatsapp": [],
    "social_links": [],
    "opening_hours": "",
    "materials": [
      "Copper",
      "Appliance",
      "Brass",
      "Steel",
      "Aluminum",
      "Iron",
      "Scrap Metal",
      "Lead"
    ],
    "material_prices": [],
    "description": "Call or visit us for the top copper and scrap metal prices in San Diego/Spring Valley"
  },
  {
    "name": "Process of Disposing Scrap Metal & Recycling in Chula Vista, CA",
    "website": "http://www.rileyrecycling.com/",
    "street_address": "2817 Main St",
    "city": "Chu",
    "region": "LA",
    "postal_code": "",
    "country": "United States",
    "phones": [],
    "emails": [],
    "whatsapp": [],
    "social_links": [],
    "opening_hours": "",
    "materials": [
      "Appliance",
      "Steel",
      "Electronic",
      "Aluminum",
      "Precious Metals",
      "Iron",
      "Scrap Metal",
      "Stainless Steel"
    ],
    "material_prices": [],
    "description": ""
  },
  {
    "name": "Junkyards list inSacramento (CA)",
    "website": "https://usjunkyards.com/st-california/cy-sacramento/",
    "street_address": "",
    "city": "",
    "region": "",
    "postal_code": "",
    "country": "United States",
    "phones": [
      "(888) 853-0481"
    ],
    "emails": [],
    "whatsapp": [],
    "social_links": [],
    "opening_hours": "",
    "materials": [
      "Battery",
      "Scrap Metal",
      "Auto Parts"
    ],
    "material_prices": [],
    "description": "This page has compiled the nearest junkyards and auto salvage in Sacramento County, CA. ⭐ On this page, you can locate the nearest junkyards and salvage yards to find parts for your vehicle or to sell it."
  },
  {
    "name": "Salvage and Clean Cars for Sale in San Diego, CA",
    "website": "https://www.salvageautosauction.com/cars-for-sale/location/SAN_DIEGO-CA",
    "street_address": "7847 Airway Rd",
    "city": "San Diego",
    "region": "CA",
    "postal_code": "92154",
    "country": "United States",
    "phones": [
      "(954) 573-6936"
    ],
    "emails": [],
    "whatsapp": [],
    "social_links": [],
    "opening_hours": "",
    "materials": [],
    "material_prices": [],
    "description": "Salvage and Clean Cars for Sale at San Diego, CA. Over 180000 Repairable Vehicles for Sale at a Fraction of their Market Cost. Register for FREE today to join the live auctions at SalvageAutosAuction.com"
  },
  {
    "name": "Scrap Metal Disposal",
    "website": "https://www.1800gotjunk.com/us_en/locations/junk-removal-sanfrancisco/scrap-metal",
    "street_address": "",
    "city": "",
    "region": "",
    "postal_code": "",
    "country": "United States",
    "phones": [
      "(866) 877-3033",
      "(800) 468-5865",
      "(800) 619-2981"
    ],
    "emails": [],
    "whatsapp": [],
    "social_links": [],
    "opening_hours": "",
    "materials": [
      "Copper",
      "Appliance",
      "Brass",
      "Steel",
      "Aluminum",
      "Iron",
      "Scrap Metal"
    ],
    "material_prices": [],
    "description": "Looking for fast scrap metal disposal in San Francisco? 1-800-GOT-JUNK? provides same-day pickup and responsible recycling for all scrap metal types. Book now!"
  },
  {
    "name": "Salvage Yard In Arroyo Grande, CA",
    "website": "https://www.timosautowrecking.com/",
    "street_address": "",
    "city": "",
    "region": "",
    "postal_code": "",
    "country": "United States",
    "phones": [
      "(805) 343-9933",
      "(805) 400-2570"
    ],
    "emails": [
      "timosauto@hotmail.com"
    ],
    "whatsapp": [],
    "social_links": [],
    "opening_hours": "",
    "materials": [
      "Auto Parts",
      "Scrap Metal"
    ],
    "material_prices": [],
    "description": "We specialize in auto salvage services and used car sales. Same-day services available. Handling DMV paperwork. Warranty on all used cars sold. Call us today."
  },
  {
    "name": "San Diego,California Junkyards & Salvage Yards",
    "website": "https://www.rustysautosalvage.com/california/san-diego.html",
    "street_address": "",
    "city": "",
    "region": "",
    "postal_code": "",
    "country": "United States",
    "phones": [
      "(908) 124-1364",
      "(866) 439-4401"
    ],
    "emails": [],
    "whatsapp": [],
    "social_links": [],
    "opening_hours": "",
    "materials": [],
    "material_prices": [],
    "description": "Our network of San Diego California junkyards and auto salvage yards will pay you cash for your junk car on the spot and offer free junk car removal in all of San Diego CA."
  },
  {
    "name": "Scrap Metal Recycling | Metal Recycle Center | Recycle Yards California",
    "website": "https://medinascrapmetalrecycling.com/",
    "street_address": "",
    "city": "",
    "region": "",
    "postal_code": "",
    "country": "United States",
    "phones": [
      "(714) 922-0890"
    ],
    "emails": [],
    "whatsapp": [],
    "social_links": [],
    "opening_hours": "",
    "materials": [
      "Appliance",
      "Copper",
      "Steel",
      "Aluminum",
      "Scrap Metal"
    ],
    "material_prices": [],
    "description": "Medina Scrap Metal Recycling center offers scrap metal recycle services. We have scrap metal recycle yards in Fullerton, Irvin, Anaheim, Los Angeles, and Buena Park."
  },
  {
    "name": "Las Vegas, NV Scrap Metal Prices",
    "website": "https://www.priceofscrapmetals.com/nevada/las-vegas/",
    "street_address": "1701 Western Avenue. The other three are on the north east",
    "city": "ern si",
    "region": "DE",
    "postal_code": "",
    "country": "United States",
    "phones": [],
    "emails": [],
    "whatsapp": [],
    "social_links": [],
    "opening_hours": "",
    "materials": [
      "Copper",
      "Brass",
      "Steel",
      "Electronic",
      "Aluminum",
      "Precious Metals",
      "Iron",
      "Stainless Steel",
      "Scrap Metal",
      "Lead"
    ],
    "material_prices": [],
    "description": "Find the Latest Scrap Metal Prices in Las Vegas, Nevada today. Check the current scrap price for copper, steel, aluminum, brass, gold and other ferrous and non-ferrous materials."
  },
  {
    "name": "Parts",
    "website": "https://sanjoseautoparts.com/",
    "street_address": "",
    "city": "San Jose",
    "region": "CA",
    "postal_code": "95112",
    "country": "United States",
    "phones": [
      "(408) 293-1375",
      "(669) 800-4271"
    ],
    "emails": [
      "info@sanjoseautoparts.com"
    ],
    "whatsapp": [],
    "social_links": [],
    "opening_hours": "",
    "materials": [
      "Battery",
      "Auto Parts"
    ],
    "material_prices": [],
    "description": "has the all the parts to repair and maintain your vehicle, as well as accessorize or take it to the next level with performance parts."
  },
  {
    "name": "FREE Nationwide Part Locating and Shipping",
    "website": "http://www.tricountyautoparts.com/",
    "street_address": "3116\n950 Mission Rock Road",
    "city": "Santa Paula",
    "region": "CA",
    "postal_code": "93060",
    "country": "United States",
    "phones": [
      "(805) 647-8440",
      "(805) 933-3116"
    ],
    "emails": [],
    "whatsapp": [],
    "social_links": [],
    "opening_hours": "",
    "materials": [
      "Auto Parts",
      "Iron"
    ],
    "material_prices": [],
    "description": ""
  },
  {
    "name": "Metal Recycling in Murrieta",
    "website": "https://www.industrialscrapmetal.com/california/murrieta-metal-recycling/",
    "street_address": "",
    "city": "",
    "region": "",
    "postal_code": "",
    "country": "United States",
    "phones": [],
    "emails": [
      "billy@warank.com"
    ],
    "whatsapp": [],
    "social_links": [],
    "opening_hours": "",
    "materials": [
      "Battery",
      "Copper",
      "Brass",
      "Steel",
      "Aluminum",
      "Iron",
      "Scrap Metal",
      "Lead",
      "Zinc"
    ],
    "material_prices": [],
    "description": "Metal Recycling in Murrieta, CA by Industrial Scrap Metal Recycling company. We recycle all types of metal like Alloy Steel, Aluminum, Appliances recycling, Automobile Batteries, and Brass in Murrieta, CA, etc."
  },
  {
    "name": "California JUNKYARDS & SALVAGE YARDS",
    "website": "https://www.rustysautosalvage.com/california.html",
    "street_address": "660    Ford Expl",
    "city": "orer  Ye",
    "region": "AR",
    "postal_code": "",
    "country": "United States",
    "phones": [
      "(866) 439-4401"
    ],
    "emails": [],
    "whatsapp": [],
    "social_links": [],
    "opening_hours": "",
    "materials": [
      "Copper",
      "Iron",
      "Scrap Metal"
    ],
    "material_prices": [],
    "description": "Our network of California junkyards and auto salvage yards will pay you cash for your junk car on the spot and offer free junk car removal in all of CA."
  },
  {
    "name": "Scrap Metal Buying in Los Angeles and San Diego",
    "website": "https://www.ekcometals.com/",
    "street_address": "2846 Commercial St",
    "city": "San Diego",
    "region": "CA",
    "postal_code": "92113",
    "country": "United States",
    "phones": [
      "(619) 756-6696",
      "(323) 264-1615"
    ],
    "emails": [],
    "whatsapp": [],
    "social_links": [],
    "opening_hours": "",
    "materials": [
      "Copper",
      "Brass",
      "Steel",
      "Aluminum",
      "Iron",
      "Scrap Metal"
    ],
    "material_prices": [],
    "description": "With locations in Los Angeles and San Diego, Ekco Metals is a trusted scrap yard offering processing and recycling of ferrous and non-ferrous metals."
  },
  {
    "name": "JunkYards inSan Diego (California)",
    "website": "https://usjunkyards.com/st-california/cy-san-diego/ci-san-diego/",
    "street_address": "217 Reviews\n\n\n\n\n\nView Junkyard",
    "city": "Sell C",
    "region": "AR",
    "postal_code": "",
    "country": "United States",
    "phones": [
      "(888) 871-4488",
      "(888) 853-0481"
    ],
    "emails": [],
    "whatsapp": [],
    "social_links": [],
    "opening_hours": "",
    "materials": [
      "Auto Parts",
      "Scrap Metal",
      "Lead"
    ],
    "material_prices": [],
    "description": "Looking for JunkYards in San Diego, CA? Discover top car salvage yards near you to sell your junk car for cash or find auto parts. Visit USJunkYards.com for the best deals in your area!"
  },
  {
    "name": "San Francisco, California Junk Yards",
    "website": "https://www.usedpart.us/used-auto-parts/california/san-francisco/",
    "street_address": "",
    "city": "",
    "region": "",
    "postal_code": "",
    "country": "United States",
    "phones": [
      "(800) 646-4790"
    ],
    "emails": [
      "sales@usedpart.us"
    ],
    "whatsapp": [],
    "social_links": [],
    "opening_hours": "",
    "materials": [
      "Battery",
      "Auto Parts"
    ],
    "material_prices": [],
    "description": "Buy OEM used auto parts from local San Francisco, California Junk Yards and save thousands of dollars. Our ASE certified techs at San Francisco, California Junk Yards test and inspect all parts before being sold."
  },
  {
    "name": "Nevada Recycling",
    "website": "https://iscrapapp.com/yards/us-nevada-henderson-nevada-recycling/",
    "street_address": "75\nFire Wire\nForktruck Battery\nFSX 414\nFuses\nGold\nHard Drive Boards\nHard Drives\nHard Drives without Boards\nHastelloy Solids\nHastelloy Turnings\nHeliax Wire\nHigh Speed Steel\nHousewire\nIncomplete Car\nInconel\nInconel 792\nInconel 800\nInconel 825\nInk Cartridges\nInsulated Aluminum Wire\nInsulated Copper Cable\nInsulated Copper Wire\nInsulated Steel BX\nInvar\nJunkshop Extrusion\nKeyboard",
    "city": "s\nKov",
    "region": "AR",
    "postal_code": "",
    "country": "United States",
    "phones": [
      "(702) 856-0866"
    ],
    "emails": [],
    "whatsapp": [],
    "social_links": [],
    "opening_hours": "",
    "materials": [
      "Battery",
      "Copper",
      "Brass",
      "Steel",
      "Catalytic Converter",
      "Aluminum",
      "Iron",
      "Stainless Steel",
      "Scrap Metal",
      "Lead"
    ],
    "material_prices": [],
    "description": "Nevada Recycling, Scrap Metal Yard in Henderson, Nevada"
  },
  {
    "name": "O'Reilly Auto Parts inSouth San Francisco (CA)",
    "website": "https://usjunkyards.com/st-california/cy-san-mateo/ci-south-san-francisco/yd-22258-o-reilly-auto-parts/",
    "street_address": "2025\n\t\t\t\t\t\t\t\t\t\t\t\n\n\n\n\n\n\n\n\n\n \nKay Oriz\n\n\n\nReally like using the online ordering. And MUCH prefer this location than the Skyline Pl",
    "city": "aza o",
    "region": "NE",
    "postal_code": "",
    "country": "United States",
    "phones": [
      "(888) 853-0481",
      "(650) 827-9081"
    ],
    "emails": [],
    "whatsapp": [],
    "social_links": [],
    "opening_hours": "",
    "materials": [
      "Battery",
      "Scrap Metal",
      "Iron",
      "Auto Parts"
    ],
    "material_prices": [],
    "description": "O'Reilly Auto Parts in 3541 Callan Blvd, South San Francisco, CA 94080 is located in the city of South San Francisco, CA  ᐉ Contact information, reviews, photos, and opening hours are on our USJunkYards salvage yard database."
  },
  {
    "name": "Metal Recycling",
    "website": "https://atlasironandmetal.com/metal-recycling/",
    "street_address": "10019 S Alameda Street",
    "city": "Los Angeles",
    "region": "CA",
    "postal_code": "90002",
    "country": "United States",
    "phones": [
      "(800) 540-5184",
      "(566) 518-4800",
      "(323) 566-5184"
    ],
    "emails": [],
    "whatsapp": [],
    "social_links": [],
    "opening_hours": "",
    "materials": [
      "Copper",
      "Steel",
      "Aluminum",
      "Iron",
      "Scrap Metal"
    ],
    "material_prices": [],
    "description": "Atlas Iron & Metal Co., a scrap yard, offers scrap metal recycling near you in Los Angeles. We buy metal, copper, aluminum, iron, stainless steel & automotive scrap for cash."
  },
  {
    "name": "California Auto Parts & Auto Dismantlersin Modesto",
    "website": "https://preferredjunkyard.com/california/modesto/california-auto-parts-auto-dismantlers/",
    "street_address": "618 S 9th St",
    "city": "Modesto",
    "region": "CA",
    "postal_code": "95351",
    "country": "United States",
    "phones": [
      "(209) 523-0751"
    ],
    "emails": [],
    "whatsapp": [],
    "social_links": [],
    "opening_hours": "",
    "materials": [
      "Auto Parts"
    ],
    "material_prices": [],
    "description": "View the main reviews of California Auto Parts & Auto Dismantlers in Modesto and get all the contact information, location details and opening hours."
  },
  {
    "name": "Scrap Metal Buyers San Francisco - Alco Metals",
    "website": "https://alcometals.com/scrap-metal-buyers-san-francisco/",
    "street_address": "39 MB.\t\t\t\t\t\t\t\n\n\n\n \n\n\n\nSend\n\n\n\n\n\n\n\n\n\n\n\n\n\nSan Leandro Headquarters \n\n\n\n\t\t\t\t\t\t\t\t\t2140 Davis St.",
    "city": "San Leandro",
    "region": "CA",
    "postal_code": "94577",
    "country": "United States",
    "phones": [
      "(707) 562-1107",
      "(408) 436-1107",
      "(209) 932-1107"
    ],
    "emails": [
      "getaquote@alcometals.com",
      "info@alcometals.com"
    ],
    "whatsapp": [],
    "social_links": [],
    "opening_hours": "",
    "materials": [
      "Copper",
      "Appliance",
      "Brass",
      "Steel",
      "Iron",
      "Scrap Metal",
      "Lead",
      "Zinc"
    ],
    "material_prices": [],
    "description": ""
  },
  {
    "name": "San Jose, CA Scrap Metal Prices",
    "website": "https://www.priceofscrapmetals.com/california/san-jose/",
    "street_address": "1 million people. It is also the largest",
    "city": "city",
    "region": "IN",
    "postal_code": "",
    "country": "United States",
    "phones": [],
    "emails": [],
    "whatsapp": [],
    "social_links": [],
    "opening_hours": "",
    "materials": [
      "Copper",
      "Brass",
      "Steel",
      "Electronic",
      "Aluminum",
      "Precious Metals",
      "Iron",
      "Stainless Steel",
      "Scrap Metal",
      "Lead"
    ],
    "material_prices": [],
    "description": "Find the Latest Scrap Metal Prices in San Jose, California today. Check the current scrap price for copper, steel, aluminum, brass, gold and other ferrous and non-ferrous materials."
  },
  {
    "name": "California",
    "website": "https://iscrapapp.com/yards-in/california/",
    "street_address": "92029\t\t\t\t\n\n\n\n\nView Yard Profile\n\n\n\n\n\n\n\n\nPREMIUM YARD\nCASS Inc\n\n\t\t\t\t2730 Peralta Street",
    "city": "Oakla",
    "region": "ND",
    "postal_code": "",
    "country": "United States",
    "phones": [],
    "emails": [],
    "whatsapp": [],
    "social_links": [],
    "opening_hours": "",
    "materials": [
      "Battery",
      "Auto Parts",
      "Copper",
      "Brass",
      "Steel",
      "Electronic",
      "Catalytic Converter",
      "Aluminum",
      "Iron",
      "Stainless Steel"
    ],
    "material_prices": [],
    "description": "Find the salvage yards and scrap yards listed in California from the iScrap App. Search for current scrap metal prices, request containers, and more within minutes."
  },
  {
    "name": "Part Search",
    "website": "https://www.actionautosanjose.com/part-search/",
    "street_address": "242 Hillcap Avenue",
    "city": "San Jose",
    "region": "CA",
    "postal_code": "95136",
    "country": "United States",
    "phones": [
      "(800) 606-9732",
      "(408) 225-5553"
    ],
    "emails": [],
    "whatsapp": [],
    "social_links": [],
    "opening_hours": "",
    "materials": [
      "Auto Parts"
    ],
    "material_prices": [],
    "description": ""
  },
  {
    "name": "Home - Universal Service Recycling, Inc.",
    "website": "https://usrscrap.com/new/",
    "street_address": "3200 South El Dorado StreetSt",
    "city": "ockton",
    "region": "CA",
    "postal_code": "95206",
    "country": "United States",
    "phones": [],
    "emails": [
      "info@usrscrap.com"
    ],
    "whatsapp": [],
    "social_links": [],
    "opening_hours": "",
    "materials": [
      "Scrap Metal",
      "Iron"
    ],
    "material_prices": [],
    "description": ""
  },
  {
    "name": "Scrap Metal Recycling San Jose - Alco Metals",
    "website": "https://alcometals.com/scrap-metal-recycling-san-jose/",
    "street_address": "39 MB.\t\t\t\t\t\t\t\n\n\n\n \n\n\n\nSend\n\n\n\n\n\n\n\n\n\n\n\n\n\nSan Leandro Headquarters \n\n\n\n\t\t\t\t\t\t\t\t\t2140 Davis St.",
    "city": "San Leandro",
    "region": "CA",
    "postal_code": "94577",
    "country": "United States",
    "phones": [
      "(707) 562-1107",
      "(408) 436-1107",
      "(209) 932-1107"
    ],
    "emails": [
      "getaquote@alcometals.com",
      "info@alcometals.com"
    ],
    "whatsapp": [],
    "social_links": [],
    "opening_hours": "",
    "materials": [
      "Copper",
      "Appliance",
      "Brass",
      "Steel",
      "Aluminum",
      "Iron",
      "Stainless Steel",
      "Scrap Metal",
      "Lead"
    ],
    "material_prices": [],
    "description": ""
  },
  {
    "name": "Powering Recycling Systems for Businesses across the Bay Area",
    "website": "https://sanfranciscorecycling.com/",
    "street_address": "2305 for a pick upHomeBatteriesCardboardSolar PanelsLightsPaintStyrofoamScrap Metale-WasteBallastMoreHomeBatteriesCardboardSolar PanelsLightsPaintStyrofoamScrap Metale-WasteBallastHomeBatteriesCardboardSolar PanelsLightsPaintStyrofoamScrap Metale-WasteBallastPowering Recycling Systems for Businesses across the Bay AreaPowering Recycling Systems for Businesses across the Bay AreaPowering Recycling Systems for Businesses across the Bay AreaPowering Recycling Systems for Businesses across the Bay AreaPowering Recycling Syst",
    "city": "ems f",
    "region": "OR",
    "postal_code": "",
    "country": "United States",
    "phones": [
      "(415) 596-2305"
    ],
    "emails": [],
    "whatsapp": [],
    "social_links": [],
    "opening_hours": "",
    "materials": [
      "Scrap Metal",
      "Iron",
      "Lead",
      "Electronic"
    ],
    "material_prices": [],
    "description": "Serving the Bay Area since 2009, we make it easy and cost effective to recycle your waste --we come to you - saving you time, money, and lowering your risk."
  },
  {
    "name": "California Junkyards",
    "website": "https://www.junkyardpartslocator.com/state/California-Junkyards.aspx",
    "street_address": "2008 -  2025 junkyard",
    "city": "partslocat",
    "region": "OR",
    "postal_code": "",
    "country": "United States",
    "phones": [],
    "emails": [],
    "whatsapp": [],
    "social_links": [],
    "opening_hours": "",
    "materials": [
      "Auto Parts"
    ],
    "material_prices": [],
    "description": ""
  },
  {
    "name": "Sacramento’s Same-Day Scrap Metal Disposal",
    "website": "https://www.1800gotjunk.com/us_en/locations/junk-removal-sacramento/scrap-metal-disposal",
    "street_address": "",
    "city": "",
    "region": "",
    "postal_code": "",
    "country": "United States",
    "phones": [
      "(866) 877-3033",
      "(800) 468-5865",
      "(800) 619-2981"
    ],
    "emails": [],
    "whatsapp": [],
    "social_links": [],
    "opening_hours": "",
    "materials": [
      "Scrap Metal",
      "Iron"
    ],
    "material_prices": [],
    "description": "Dispose of scrap metal efficiently with 1-800-GOT-JUNK? Greater Sacramento. Offering eco-friendly, same-day services tailored to local needs."
  },
  {
    "name": "Tapatio Auto and Truck Recycling - San Bernardino Location",
    "website": "https://www.tapatioauto.com/san-bernardino/",
    "street_address": "827 N Waterman Ave\nSan Bernard",
    "city": "ino",
    "region": "CA",
    "postal_code": "92410",
    "country": "United States",
    "phones": [
      "(800) 388-9134"
    ],
    "emails": [],
    "whatsapp": [],
    "social_links": [],
    "opening_hours": "",
    "materials": [],
    "material_prices": [],
    "description": "We are located in the city of San Bernardino California, we have a broad range of recycled OEM parts from most manufacturers."
  },
  {
    "name": "Los Angeles, CA Scrap Metal Prices",
    "website": "https://www.priceofscrapmetals.com/california/los-angeles/",
    "street_address": "2777 East Washington Blvd",
    "city": "and centr",
    "region": "AL",
    "postal_code": "",
    "country": "United States",
    "phones": [],
    "emails": [],
    "whatsapp": [],
    "social_links": [],
    "opening_hours": "",
    "materials": [
      "Copper",
      "Brass",
      "Steel",
      "Electronic",
      "Aluminum",
      "Precious Metals",
      "Iron",
      "Stainless Steel",
      "Scrap Metal",
      "Lead"
    ],
    "material_prices": [],
    "description": "Find the Latest Scrap Metal Prices in Los Angeles, California today. Check the current scrap price for copper, steel, aluminum, brass, gold and other ferrous and non-ferrous materials."
  },
  {
    "name": "Scrap metal",
    "website": "https://www.sfenvironment.org/sfrecycles/item/scrap-metal",
    "street_address": "",
    "city": "ASan Francisco",
    "region": "CA",
    "postal_code": "94103",
    "country": "United States",
    "phones": [
      "(415) 282-8568"
    ],
    "emails": [],
    "whatsapp": [],
    "social_links": [],
    "opening_hours": "",
    "materials": [
      "Appliance",
      "Iron",
      "Electronic",
      "Scrap Metal"
    ],
    "material_prices": [],
    "description": ""
  },
  {
    "name": "Complete Metal Recycling and Disposal",
    "website": "https://bayareascavengerandrecycling.com/metal/",
    "street_address": "11740 Berryessa Rd",
    "city": "San Jose",
    "region": "CA",
    "postal_code": "95133",
    "country": "United States",
    "phones": [
      "(408) 205-4370"
    ],
    "emails": [],
    "whatsapp": [],
    "social_links": [],
    "opening_hours": "",
    "materials": [
      "Copper",
      "Appliance",
      "Brass",
      "Steel",
      "Electronic",
      "Aluminum",
      "Iron",
      "Scrap Metal"
    ],
    "material_prices": [],
    "description": ""
  },
  {
    "name": "Reno Salvage Co",
    "website": "https://renosalvage.com/",
    "street_address": "301 Montello Street",
    "city": "Reno",
    "region": "NV",
    "postal_code": "89512",
    "country": "United States",
    "phones": [],
    "emails": [
      "renosalvage@gmail.com",
      "rscnewmetals@gmail.comlearn",
      "rscnewmetals@gmail.com"
    ],
    "whatsapp": [],
    "social_links": [],
    "opening_hours": "",
    "materials": [
      "Copper",
      "Brass",
      "Steel",
      "Aluminum",
      "Scrap Metal",
      "Lead"
    ],
    "material_prices": [],
    "description": ""
  },
  {
    "name": "American Metals Company",
    "website": "https://www.amcrecycling.com/",
    "street_address": "740 W Broadway Rd",
    "city": "Mesa",
    "region": "AZ",
    "postal_code": "85210",
    "country": "United States",
    "phones": [
      "(602) 767-6580",
      "(480) 834-1923"
    ],
    "emails": [],
    "whatsapp": [],
    "social_links": [],
    "opening_hours": "",
    "materials": [
      "Copper",
      "Steel",
      "Aluminum",
      "Iron",
      "Scrap Metal",
      "Stainless Steel"
    ],
    "material_prices": [],
    "description": "American Metals Company buys and sells metal including: steel, aluminum and copper. Commercial services include: containers, flatbeds, etc."
  },
  {
    "name": "TACOMA AUTO AND TRUCK RECYCLING",
    "website": "http://recycler.car-part.com/TacomaAutoandTruckRecycling/",
    "street_address": "1555 La Media Rd",
    "city": "San Diego",
    "region": "CA",
    "postal_code": "92154",
    "country": "United States",
    "phones": [
      "(619) 661-1190"
    ],
    "emails": [
      "californiasports11@yahoo.com"
    ],
    "whatsapp": [],
    "social_links": [],
    "opening_hours": "",
    "materials": [],
    "material_prices": [],
    "description": "TACOMA AUTO AND TRUCK RECYCLING: serving the San Diego, CA area with quality used parts"
  },
  {
    "name": "SAN DIEGO AUTO WRECKING - Quality Used Auto Parts, T.619-671-9800. San Diego, CA",
    "website": "https://www.sandiegoautowrecking.com/",
    "street_address": "951 Heritage Rd.",
    "city": "San Diego",
    "region": "CA",
    "postal_code": "92154",
    "country": "United States",
    "phones": [
      "(619) 671-9800",
      "(619) 661-1908",
      "(671) 980-0619"
    ],
    "emails": [
      "emailsandiegoaw@hotmail.com",
      "number619-671-9800619-661-1908emailsandiegoaw@hotmail.comopening",
      "sandiegoaw@hotmail.com"
    ],
    "whatsapp": [],
    "social_links": [],
    "opening_hours": "",
    "materials": [
      "Auto Parts"
    ],
    "material_prices": [],
    "description": "Thousands of used auto parts for Honda, Ford, Jeep, Nissan, Mazda, Toyota cars."
  },
  {
    "name": "CMS Recycling",
    "website": "https://cmsmetals.com/",
    "street_address": "1428 W Mission Rd",
    "city": "Escondido",
    "region": "CA",
    "postal_code": "92029",
    "country": "United States",
    "phones": [
      "(760) 741-6300",
      "(741) 630-0760"
    ],
    "emails": [
      "dkemper@cmsmetals.com"
    ],
    "whatsapp": [],
    "social_links": [],
    "opening_hours": "",
    "materials": [
      "Scrap Metal",
      "Iron"
    ],
    "material_prices": [],
    "description": ""
  },
  {
    "name": "Junkyards & Auto Salvagein San Bernardino, CA",
    "website": "https://preferredjunkyard.com/california/san-bernardino/",
    "street_address": "1670 Walnut St",
    "city": "San Bernardino",
    "region": "CA",
    "postal_code": "92410",
    "country": "United States",
    "phones": [],
    "emails": [],
    "whatsapp": [],
    "social_links": [],
    "opening_hours": "",
    "materials": [
      "Auto Parts"
    ],
    "material_prices": [],
    "description": "Find Trusted Junkyards and Auto Salvage Yards in San Bernardino, California that Buy Junk Cars and Sell Reliable Used Auto and Truck Parts."
  },
  {
    "name": "Los Angeles's premier industrial scrap metal company",
    "website": "https://www.ptmetals.com/areas-served/los-angeles/",
    "street_address": "38252213 Tyler Ave",
    "city": "South El Monte",
    "region": "CA",
    "postal_code": "91733",
    "country": "United States",
    "phones": [],
    "emails": [
      "91733emailscrap@ptmetals.comhoursmon",
      "scrap@ptmetals.com"
    ],
    "whatsapp": [],
    "social_links": [],
    "opening_hours": "",
    "materials": [
      "Copper",
      "Brass",
      "Steel",
      "Electronic",
      "Aluminum",
      "Precious Metals",
      "Iron",
      "Scrap Metal",
      "Stainless Steel"
    ],
    "material_prices": [],
    "description": "Struggling to manage your scrap metal? We provide Los Angeles businesses with efficient recycling, reliable pickups, & top payouts to simplify operations."
  },
  {
    "name": "Scrap Metal Recycling San Francisco - Alco Metals",
    "website": "https://alcometals.com/scrap-metal-recycling-san-francisco/",
    "street_address": "39 MB.\t\t\t\t\t\t\t\n\n\n\n \n\n\n\nSend\n\n\n\n\n\n\n\n\n\n\n\n\n\nSan Leandro Headquarters \n\n\n\n\t\t\t\t\t\t\t\t\t2140 Davis St.",
    "city": "San Leandro",
    "region": "CA",
    "postal_code": "94577",
    "country": "United States",
    "phones": [
      "(707) 562-1107",
      "(408) 436-1107",
      "(209) 932-1107"
    ],
    "emails": [
      "getaquote@alcometals.com",
      "info@alcometals.com"
    ],
    "whatsapp": [],
    "social_links": [],
    "opening_hours": "",
    "materials": [
      "Appliance",
      "Iron",
      "Lead",
      "Scrap Metal"
    ],
    "material_prices": [],
    "description": ""
  },
  {
    "name": "Today’s Scrap Prices & Local Scrap Yards",
    "website": "https://iscrapapp.com/",
    "street_address": "1 - 1\n\n\n\n\n\n\n\n\n\n\n\nTrending MetalsView all Prices\n\n\n\n\nMetal\nAverage Price\nNational 45-Day Ave",
    "city": "rage\nNation",
    "region": "AL",
    "postal_code": "",
    "country": "United States",
    "phones": [],
    "emails": [],
    "whatsapp": [],
    "social_links": [],
    "opening_hours": "",
    "materials": [
      "Battery",
      "Copper",
      "Brass",
      "Steel",
      "Catalytic Converter",
      "Aluminum",
      "Iron",
      "Stainless Steel",
      "Scrap Metal",
      "Lead"
    ],
    "material_prices": [],
    "description": "Stay up to date with current scrap metal prices. Maximize your profits with the latest market trends & locate scrap yards in the US & Canada."
  },
  {
    "name": "San Francisco Scrap Yards, CA",
    "website": "https://iscrapapp.com/scrap-yards/san-francisco-ca/",
    "street_address": "2730 Peralta Street",
    "city": "Oakla",
    "region": "ND",
    "postal_code": "",
    "country": "United States",
    "phones": [],
    "emails": [],
    "whatsapp": [],
    "social_links": [],
    "opening_hours": "",
    "materials": [
      "Battery",
      "Copper",
      "Brass",
      "Steel",
      "Catalytic Converter",
      "Aluminum",
      "Iron",
      "Stainless Steel",
      "Scrap Metal",
      "Lead"
    ],
    "material_prices": [],
    "description": "Easily find surrounding San Francisco Scrap Yards and get all the contact information to recycle your scrap metal. On the iScrap App, you can find scrap yards and their phone number, email, scrap metal prices, and request containers."
  },
  {
    "name": "PREMIERSCRAP METAL RECYCLING CENTER",
    "website": "https://www.ammetalsco.com/",
    "street_address": "99951505 Washington Boulevard",
    "city": "Montebello",
    "region": "CA",
    "postal_code": "90640",
    "country": "United States",
    "phones": [
      "(714) 547-6507"
    ],
    "emails": [
      "info@gmrecycling.com"
    ],
    "whatsapp": [],
    "social_links": [],
    "opening_hours": "",
    "materials": [
      "Copper",
      "Appliance",
      "Brass",
      "Steel",
      "Aluminum",
      "Iron",
      "Scrap Metal",
      "Stainless Steel"
    ],
    "material_prices": [],
    "description": "A & M Metals Inc. in Santa Ana, CA, specializes in recycling all types of ferrous and nonferrous metals. Call us at 714-547-6507 to learn more."
  },
  {
    "name": "Scrap Metal and E-Scrap Recycling - R2, ISO 14001, ISO 45001 Certified",
    "website": "https://www.broadwaymetalrecycling.com/",
    "street_address": "3330 W Broadway Rd",
    "city": "Phoenix",
    "region": "AZ",
    "postal_code": "85041",
    "country": "United States",
    "phones": [
      "(602) 795-6328"
    ],
    "emails": [],
    "whatsapp": [],
    "social_links": [],
    "opening_hours": "",
    "materials": [
      "Scrap Metal",
      "Iron",
      "Lead",
      "Electronic"
    ],
    "material_prices": [],
    "description": "Scrap Metal & E-Scrap Recycling"
  },
  {
    "name": "Best Salvage Yards In Los Angeles",
    "website": "https://www.bestinhood.com/los-angeles/auto-services/best-salvage-yards-in-los-angeles/",
    "street_address": "535 Gallardo St",
    "city": "Los Angeles",
    "region": "CA",
    "postal_code": "90033",
    "country": "United States",
    "phones": [],
    "emails": [],
    "whatsapp": [],
    "social_links": [],
    "opening_hours": "",
    "materials": [
      "Auto Parts",
      "Lead"
    ],
    "material_prices": [],
    "description": "Discover the top salvage yards in Los Angeles! From quality parts to pricing insights, explore our guide for the best automotive deals in the City of Angels."
  },
  {
    "name": "USED CARS & PARTS",
    "website": "http://infinityautosalvage.com/",
    "street_address": "7314\nwww.oldcarbuyback.com\nThis voluntary program is sponsored by the Bay Area Air Quality Management District.\n \n\n\nHAVE",
    "city": "A C",
    "region": "AR",
    "postal_code": "",
    "country": "United States",
    "phones": [
      "(866) 272-9642",
      "(855) 343-7314"
    ],
    "emails": [
      "parts@infinitysalvage.com"
    ],
    "whatsapp": [],
    "social_links": [],
    "opening_hours": "",
    "materials": [
      "Battery",
      "Iron"
    ],
    "material_prices": [],
    "description": ""
  },
  {
    "name": "SCRAP METAL BUYERSSERVING SOUTHERN CALIFORNIA",
    "website": "https://www.sackinmetal.com/",
    "street_address": "15201 Transistor Ln",
    "city": "Huntington Beach",
    "region": "CA",
    "postal_code": "92649",
    "country": "United States",
    "phones": [
      "(714) 891-4505"
    ],
    "emails": [],
    "whatsapp": [],
    "social_links": [],
    "opening_hours": "",
    "materials": [
      "Copper",
      "Steel",
      "Aluminum",
      "Stainless Steel",
      "Scrap Metal",
      "Lead"
    ],
    "material_prices": [],
    "description": "Contact Huntington Beach, CA’s Sackin Metals today at 7148914505 for high-quality metal services! We offer scrap metal buying, selling, and more. Click here!"
  },
  {
    "name": "A & S Metal Recycling",
    "website": "https://iscrapapp.com/yards/us-california-los-angeles-a-s-metal-recycling/",
    "street_address": "500 companies throughout the United St",
    "city": "ates a",
    "region": "ND",
    "postal_code": "",
    "country": "United States",
    "phones": [
      "(800) 548-1946"
    ],
    "emails": [],
    "whatsapp": [],
    "social_links": [],
    "opening_hours": "",
    "materials": [
      "Battery",
      "Copper",
      "Brass",
      "Steel",
      "Catalytic Converter",
      "Aluminum",
      "Iron",
      "Stainless Steel",
      "Scrap Metal",
      "Lead"
    ],
    "material_prices": [],
    "description": "A & S Metal Recycling, Scrap Metal Yard in Los Angeles, California"
  },
  {
    "name": "Scrap Metal Prices San Diego",
    "website": "https://www.scrapmetalpricesusa.com/scrap-metal-prices-san-diego.php",
    "street_address": "1 elect",
    "city": "ric",
    "region": "AL",
    "postal_code": "",
    "country": "United States",
    "phones": [],
    "emails": [],
    "whatsapp": [],
    "social_links": [],
    "opening_hours": "",
    "materials": [
      "Copper",
      "Brass",
      "Steel",
      "Aluminum",
      "Iron",
      "Stainless Steel",
      "Scrap Metal",
      "Lead"
    ],
    "material_prices": [],
    "description": ""
  },
  {
    "name": "Scale Operators, General Labor",
    "website": "https://i-buy-scrap.com/",
    "street_address": "940 E Broadway Rd",
    "city": "Phoenix",
    "region": "AZ",
    "postal_code": "85040",
    "country": "United States",
    "phones": [
      "(602) 276-9414",
      "(480) 280-9000",
      "(480) 907-6978"
    ],
    "emails": [],
    "whatsapp": [],
    "social_links": [],
    "opening_hours": "",
    "materials": [
      "Copper",
      "Brass",
      "Steel",
      "Catalytic Converter",
      "Aluminum",
      "Iron",
      "Stainless Steel",
      "Scrap Metal",
      "Lead"
    ],
    "material_prices": [],
    "description": "Scrap metal recycling center, purchasing all types of scrap metal, copper, aluminum, brass, batteries, AC units. Roll off bins available for clean ups."
  },
  {
    "name": "Sacramento Auto Dismantler | Auto Parts & Car Sales - Martin's Auto Dismantler",
    "website": "https://martinsautodismantler.com/",
    "street_address": "",
    "city": "Sacramento",
    "region": "CA",
    "postal_code": "95828",
    "country": "United States",
    "phones": [
      "(916) 730-8100"
    ],
    "emails": [
      "admin@martinsautodismantler.com",
      "sales@martinsautodismantler.com"
    ],
    "whatsapp": [],
    "social_links": [],
    "opening_hours": "",
    "materials": [
      "Auto Parts",
      "Iron"
    ],
    "material_prices": [],
    "description": "Sacramento's premier auto dismantlers, offering used parts, car sales, and eco-friendly solutions. Book an appointment today!"
  },
  {
    "name": "Full-ServiceHVAC & AC Unit Removal/Recycling.",
    "website": "https://www.rzrrecycling.com/",
    "street_address": "",
    "city": "Phoenix",
    "region": "AZ",
    "postal_code": "85027",
    "country": "United States",
    "phones": [
      "(623) 869-0021"
    ],
    "emails": [
      "hello@rzrrecycling.com"
    ],
    "whatsapp": [],
    "social_links": [],
    "opening_hours": "",
    "materials": [
      "Copper",
      "Appliance",
      "Brass",
      "Steel",
      "Catalytic Converter",
      "Aluminum",
      "Scrap Metal",
      "Lead"
    ],
    "material_prices": [],
    "description": ""
  },
  {
    "name": "Contact Alco Metals | Get in Touch for Metal Supply & Recycling",
    "website": "https://alcometals.com/contact-us/",
    "street_address": "2140 Davis St.",
    "city": "San Leandro",
    "region": "CA",
    "postal_code": "94577",
    "country": "United States",
    "phones": [
      "(510) 562-1107"
    ],
    "emails": [
      "info@alcometals.com"
    ],
    "whatsapp": [],
    "social_links": [],
    "opening_hours": "",
    "materials": [
      "Appliance",
      "Iron",
      "Scrap Metal"
    ],
    "material_prices": [],
    "description": "Reach out to Alco Metals for metal supply, recycling, and fabrication services. Contact us today for quotes, inquiries, or visit our Bay Area locations."
  },
  {
    "name": "ARIZONA SCRAP IRON & METAL INC. in Phoenix, Arizona",
    "website": "https://www.arizonascrapiron.com/",
    "street_address": "",
    "city": "Phoenix",
    "region": "AZ",
    "postal_code": "85007",
    "country": "United States",
    "phones": [
      "(602) 252-8423"
    ],
    "emails": [
      "azscrap@cox.net"
    ],
    "whatsapp": [],
    "social_links": [],
    "opening_hours": "",
    "materials": [
      "Copper",
      "Brass",
      "Steel",
      "Aluminum",
      "Iron",
      "Scrap Metal",
      "Stainless Steel"
    ],
    "material_prices": [],
    "description": "Arizona Scrap Iron & Metal Inc. in Phoenix, AZ offers quality services such as drop-off and pick-up of your scrap metals. Call us today at 602-252-8423."
  },
  {
    "name": "Scrap Metal Recycling & Salvage Yard in Phoenix AZ | We Buy Scrap",
    "website": "http://webuyscrapaz.com/",
    "street_address": "3035 W. Broadway Rd.",
    "city": "Phoenix",
    "region": "AZ",
    "postal_code": "85041",
    "country": "United States",
    "phones": [
      "(602) 243-3011"
    ],
    "emails": [],
    "whatsapp": [],
    "social_links": [],
    "opening_hours": "",
    "materials": [
      "Copper",
      "Appliance",
      "Brass",
      "Steel",
      "Aluminum",
      "Precious Metals",
      "Iron",
      "Stainless Steel",
      "Scrap Metal",
      "Lead"
    ],
    "material_prices": [],
    "description": ""
  },
  {
    "name": "C & M Metals is a provider ofScrap Metal Recycling and Metal Trading Services",
    "website": "https://cmmetals.net/",
    "street_address": "1709 E. 24th St.",
    "city": "Los Angeles",
    "region": "CA",
    "postal_code": "90058",
    "country": "United States",
    "phones": [
      "(323) 234-4662",
      "(323) 234-5844"
    ],
    "emails": [
      "sales@cmmetals.net"
    ],
    "whatsapp": [],
    "social_links": [],
    "opening_hours": "",
    "materials": [
      "Copper",
      "Steel",
      "Electronic",
      "Aluminum",
      "Iron",
      "Scrap Metal"
    ],
    "material_prices": [],
    "description": "C and M Metals has been one of the pioneers in the recycling of secondary metals and scrap metal waste for over 50 years."
  },
  {
    "name": "San Jose, California - 95139 Local Recycling Centers",
    "website": "https://recyclingcenters.org/California/San_Jose_95139_recycling_centers.php",
    "street_address": "95112\n                            \n\n\n\n\n\n\n\n\n\n\n\n\nValley Recycling\n\n\n\n                                                                    1615 S 7th St",
    "city": "San Jose",
    "region": "CA",
    "postal_code": "95112",
    "country": "United States",
    "phones": [],
    "emails": [],
    "whatsapp": [],
    "social_links": [],
    "opening_hours": "",
    "materials": [
      "Iron",
      "Electronic"
    ],
    "material_prices": [],
    "description": "San Jose, California 95139 Local Recycling Centers and Recycling Information and Statistics"
  },
  {
    "name": "San Francisco Metal Recycling - Alco Metals",
    "website": "https://alcometals.com/san-francisco-metal-recycling-scrap-metal/",
    "street_address": "30 PM\n\n\n\n\n\n \n2140 Davis St",
    "city": "San Leandro",
    "region": "CA",
    "postal_code": "94577",
    "country": "United States",
    "phones": [
      "(707) 562-1107",
      "(510) 562-1107"
    ],
    "emails": [
      "info@alcometals.com"
    ],
    "whatsapp": [],
    "social_links": [],
    "opening_hours": "",
    "materials": [
      "Copper",
      "Appliance",
      "Brass",
      "Steel",
      "Aluminum",
      "Iron",
      "Scrap Metal",
      "Stainless Steel"
    ],
    "material_prices": [],
    "description": ""
  },
  {
    "name": "ALL-MET Recycling, Inc. – Est. 1957",
    "website": "https://allmetrecycling.com/",
    "street_address": "",
    "city": "",
    "region": "",
    "postal_code": "",
    "country": "United States",
    "phones": [
      "(714) 528-6013"
    ],
    "emails": [
      "info@allmetrecycling.com"
    ],
    "whatsapp": [],
    "social_links": [],
    "opening_hours": "",
    "materials": [
      "Copper",
      "Brass",
      "Steel",
      "Aluminum",
      "Stainless Steel",
      "Scrap Metal",
      "Lead"
    ],
    "material_prices": [],
    "description": ""
  },
  {
    "name": "Garcia Recycling Center & Metals Inc., in Garden Grove",
    "website": "https://garciarecycling.net/",
    "street_address": "321313862 Seaboard CircleGard",
    "city": "en Grove",
    "region": "CA",
    "postal_code": "92843",
    "country": "United States",
    "phones": [
      "(714) 554-3213"
    ],
    "emails": [],
    "whatsapp": [],
    "social_links": [],
    "opening_hours": "",
    "materials": [
      "Copper",
      "Appliance",
      "Brass",
      "Steel",
      "Electronic",
      "Aluminum",
      "Iron",
      "Stainless Steel",
      "Scrap Metal",
      "Lead"
    ],
    "material_prices": [],
    "description": "Recycling Center in Garden Grove. Plastic, aluminum, glass, plastic, cardboard recycling and more. Call or visit us now!"
  },
  {
    "name": "San Diego Scrap Metal Buyers & Recycling Centers",
    "website": "https://scrapvisor.com/california/san-diego/",
    "street_address": "52 619 312 6677\n\n\n\n\nView Yard Profile\n\n\n\n\n\nEkco Metals\n2846 Commercial St",
    "city": "San Diego",
    "region": "CA",
    "postal_code": "92113",
    "country": "United States",
    "phones": [
      "(619) 756-6696",
      "(858) 381-7882",
      "(619) 312-6677"
    ],
    "emails": [],
    "whatsapp": [],
    "social_links": [],
    "opening_hours": "",
    "materials": [
      "Copper",
      "Brass",
      "Steel",
      "Aluminum",
      "Iron",
      "Stainless Steel",
      "Scrap Metal",
      "Lead",
      "Zinc"
    ],
    "material_prices": [],
    "description": "Find trusted scrap metal buyers and recycling centers in San Diego. View up-to-date scrap metal prices, explore our interactive map of local scrap yards, and connect with reputable companies for fast and profitable scrap sales."
  },
  {
    "name": "REUSE",
    "website": "https://www.a2zrecyclingllc.com/",
    "street_address": "",
    "city": "",
    "region": "",
    "postal_code": "",
    "country": "United States",
    "phones": [
      "(928) 208-9233"
    ],
    "emails": [
      "a2zrecycling.net@gmail.comturn",
      "a2zrecycling.net@gmail.com",
      "info@mysite.com"
    ],
    "whatsapp": [],
    "social_links": [],
    "opening_hours": "",
    "materials": [
      "Aluminum",
      "Copper",
      "Brass"
    ],
    "material_prices": [],
    "description": "A2Z Recycling Center accepts plastic bottles, aluminum cans, aluminum, copper, brass, electric motors, wire, batteries, and cans."
  },
  {
    "name": "Junkyards & Auto Salvagein San Diego, CA",
    "website": "https://preferredjunkyard.com/california/san-diego/",
    "street_address": "969 Heritage Rd",
    "city": "San Diego",
    "region": "CA",
    "postal_code": "92154",
    "country": "United States",
    "phones": [],
    "emails": [],
    "whatsapp": [],
    "social_links": [],
    "opening_hours": "",
    "materials": [
      "Auto Parts",
      "Iron"
    ],
    "material_prices": [],
    "description": "Find Trusted Junkyards and Auto Salvage Yards in San Diego, California that Buy Junk Cars and Sell Reliable Used Auto and Truck Parts."
  },
  {
    "name": "Tapatio Auto Partsin San Diego",
    "website": "https://preferredjunkyard.com/california/san-diego/tapatio-auto-parts/",
    "street_address": "2327 Siempre Viva Ct",
    "city": "San Diego",
    "region": "CA",
    "postal_code": "92154",
    "country": "United States",
    "phones": [
      "(323) 250-1975"
    ],
    "emails": [],
    "whatsapp": [],
    "social_links": [],
    "opening_hours": "",
    "materials": [
      "Auto Parts"
    ],
    "material_prices": [],
    "description": "View the main reviews of Tapatio Auto Parts in San Diego and get all the contact information, location details and opening hours."
  },
  {
    "name": "JunkYards inSacramento (California)",
    "website": "https://usjunkyards.com/st-california/cy-sacramento/ci-sacramento/",
    "street_address": "",
    "city": "",
    "region": "",
    "postal_code": "",
    "country": "United States",
    "phones": [
      "(888) 871-4488",
      "(888) 853-0481"
    ],
    "emails": [],
    "whatsapp": [],
    "social_links": [],
    "opening_hours": "",
    "materials": [
      "Battery",
      "Scrap Metal",
      "Auto Parts",
      "Steel"
    ],
    "material_prices": [],
    "description": "We have compiled detailed information on the junkyards near you in Sacramento, CA ᐉ Visit this page to locate car salvage yards in your area, where you can sell your car or find auto parts."
  },
  {
    "name": "Tapatio Auto and Truck Recycling - Chula Vista Nirvana",
    "website": "https://www.tapatioauto.com/chula-vista-nirvana/",
    "street_address": "1851 Nirvana Ave",
    "city": "Chu",
    "region": "LA",
    "postal_code": "",
    "country": "United States",
    "phones": [
      "(800) 388-9134"
    ],
    "emails": [],
    "whatsapp": [],
    "social_links": [],
    "opening_hours": "",
    "materials": [],
    "material_prices": [],
    "description": "We are located in the city of Chula Vista California on Nirvana Street, and we have 3 locations for your convenience."
  },
  {
    "name": "Tapatio Auto and Truck Recycling - Natalia Texas Location",
    "website": "https://www.tapatioauto.com/natalia-texas-location/",
    "street_address": "1851 Nirvana Ave",
    "city": "Chu",
    "region": "LA",
    "postal_code": "",
    "country": "United States",
    "phones": [
      "(800) 388-9134"
    ],
    "emails": [],
    "whatsapp": [],
    "social_links": [],
    "opening_hours": "",
    "materials": [],
    "material_prices": [],
    "description": "We are located in the city of Natalia Texas south of San Antonio, we have a huge inventory of used car parts."
  },
  {
    "name": "ZARC Recycling",
    "website": "https://iscrapapp.com/yards/us-california-san-francisco-zarc-recycling/",
    "street_address": "75 Waterloo Street",
    "city": "San Francis",
    "region": "CO",
    "postal_code": "",
    "country": "United States",
    "phones": [
      "(415) 282-1267"
    ],
    "emails": [],
    "whatsapp": [],
    "social_links": [],
    "opening_hours": "",
    "materials": [
      "Battery",
      "Copper",
      "Brass",
      "Steel",
      "Catalytic Converter",
      "Aluminum",
      "Iron",
      "Stainless Steel",
      "Scrap Metal",
      "Lead"
    ],
    "material_prices": [],
    "description": "ZARC Recycling, Scrap Metal Yard in San Francisco, California"
  },
  {
    "name": "Goodbye Junk. Hello Relief.",
    "website": "https://www.1800gotjunk.com/us_en/locations/junk-removal-sandiego/scrap-metal-pickup",
    "street_address": "",
    "city": "",
    "region": "",
    "postal_code": "",
    "country": "United States",
    "phones": [
      "(866) 877-3033",
      "(800) 468-5865",
      "(800) 619-2981"
    ],
    "emails": [],
    "whatsapp": [],
    "social_links": [],
    "opening_hours": "",
    "materials": [
      "Scrap Metal",
      "Iron",
      "Electronic"
    ],
    "material_prices": [],
    "description": "Discover 1-800-GOT-JUNK? San Diego's expert scrap metal removal and recycling services. Schedule your eco-friendly pickup today for a clutter-free tomorrow."
  },
  {
    "name": "Ajax Auto Dismantlers Inc",
    "website": "https://iscrapapp.com/yards/us-california-san-francisco-ajax-auto-dismantlers-inc/",
    "street_address": "2895 3rd St",
    "city": "San Francis",
    "region": "CO",
    "postal_code": "",
    "country": "United States",
    "phones": [
      "(415) 821-3100"
    ],
    "emails": [],
    "whatsapp": [],
    "social_links": [],
    "opening_hours": "",
    "materials": [
      "Battery",
      "Copper",
      "Brass",
      "Steel",
      "Catalytic Converter",
      "Aluminum",
      "Iron",
      "Stainless Steel",
      "Lead",
      "Zinc"
    ],
    "material_prices": [],
    "description": "Ajax Auto Dismantlers Inc, Auto Wrecker and Salvage Yard in San Francisco, California"
  },
  {
    "name": "PHOENIX SALVAGE AUTO PARTS, LLC",
    "website": "http://recycler.car-part.com/phoenixsalvageautoparts/",
    "street_address": "2130 W. BROADWAY RD.",
    "city": "PHOENIX",
    "region": "AZ",
    "postal_code": "85041",
    "country": "United States",
    "phones": [
      "(602) 296-4520"
    ],
    "emails": [
      "phoenixsalvageautoparts@gmail.com"
    ],
    "whatsapp": [],
    "social_links": [],
    "opening_hours": "",
    "materials": [
      "Auto Parts"
    ],
    "material_prices": [],
    "description": "PHOENIX SALVAGE AUTO PARTS: serving the PHOENIX, AZ area with quality used parts"
  },
  {
    "name": "Sacramento Scrap Metal Buyers & Recycling Centers",
    "website": "https://scrapvisor.com/california/sacramento/",
    "street_address": "1 916-313-2924\n\n\n\n\nView Yard Profile\n\n\n\n\n\nSV Recycling Center\n8110 Junipero St",
    "city": "Sacramento",
    "region": "CA",
    "postal_code": "95828",
    "country": "United States",
    "phones": [
      "(916) 313-2924",
      "(916) 701-2078",
      "(916) 387-0177"
    ],
    "emails": [],
    "whatsapp": [],
    "social_links": [],
    "opening_hours": "",
    "materials": [
      "Copper",
      "Brass",
      "Steel",
      "Aluminum",
      "Iron",
      "Stainless Steel",
      "Scrap Metal",
      "Lead",
      "Zinc"
    ],
    "material_prices": [],
    "description": "Find trusted scrap metal buyers and recycling centers in Sacramento. View up-to-date scrap metal prices, explore our interactive map of local scrap yards, and connect with reputable companies for fast and profitable scrap sales."
  },
  {
    "name": "Sacramento, California - 95864 Local Recycling Centers",
    "website": "https://recyclingcenters.org/California/Sacramento_95864_recycling_centers.php",
    "street_address": "8455 24th Ave",
    "city": "Sacramento",
    "region": "CA",
    "postal_code": "95826",
    "country": "United States",
    "phones": [],
    "emails": [],
    "whatsapp": [],
    "social_links": [],
    "opening_hours": "",
    "materials": [
      "Iron",
      "Electronic",
      "Steel"
    ],
    "material_prices": [],
    "description": "Sacramento, California 95864 Local Recycling Centers and Recycling Information and Statistics"
  },
  {
    "name": "Phelps Auto Wreckers",
    "website": "http://recycler.car-part.com/PhelpsAuto/",
    "street_address": "2622 Eden Road",
    "city": "San Leandro",
    "region": "CA",
    "postal_code": "94577",
    "country": "United States",
    "phones": [
      "(510) 569-4204",
      "(510) 569-4845"
    ],
    "emails": [
      "phelpsautoparts@yahoo.com"
    ],
    "whatsapp": [],
    "social_links": [],
    "opening_hours": "",
    "materials": [],
    "material_prices": [],
    "description": "Phelps Auto Wreckers: serving the San Leandro, CA area with quality used parts"
  },
  {
    "name": "Why Choose Us?",
    "website": "https://dvrecycling.com/",
    "street_address": "",
    "city": "W. Deer Valley Rd. Phoenix",
    "region": "AZ",
    "postal_code": "85027",
    "country": "United States",
    "phones": [
      "(623) 869-8900"
    ],
    "emails": [
      "contact@dvrecycling.com"
    ],
    "whatsapp": [],
    "social_links": [],
    "opening_hours": "",
    "materials": [
      "Copper",
      "Brass",
      "Steel",
      "Electronic",
      "Aluminum"
    ],
    "material_prices": [],
    "description": "Welcome to Deer Valley Recycling Center in Phoenix, AZ."
  },
  {
    "name": "Junkyards list inLos Angeles (CA)",
    "website": "https://usjunkyards.com/st-california/cy-los-angeles/",
    "street_address": "970 Reviews\n\n\n3333 Peck Rd",
    "city": "Monrov",
    "region": "IA",
    "postal_code": "",
    "country": "United States",
    "phones": [
      "(888) 853-0481"
    ],
    "emails": [],
    "whatsapp": [],
    "social_links": [],
    "opening_hours": "",
    "materials": [
      "Auto Parts",
      "Scrap Metal"
    ],
    "material_prices": [],
    "description": "This page has compiled the nearest junkyards and auto salvage in Los Angeles County, CA. ⭐ On this page, you can locate the nearest junkyards and salvage yards to find parts for your vehicle or to sell it."
  },
  {
    "name": "Mayfair Auto Wreckers | San Jose, CA",
    "website": "http://mayfairautowreckers.com/",
    "street_address": "",
    "city": "San Jose",
    "region": "CA",
    "postal_code": "95116",
    "country": "United States",
    "phones": [
      "(408) 251-1727",
      "(408) 638-1319"
    ],
    "emails": [],
    "whatsapp": [],
    "social_links": [],
    "opening_hours": "Business Hours (PST/PDT) Mon - Fri 8:30 am - 5:30 pm Sat & Sun Closed",
    "materials": [
      "Auto Parts"
    ],
    "material_prices": [],
    "description": "Mayfair Auto Wreckers: serving the San Francisco Bay Area with quality used parts"
  },
  {
    "name": "Sacramento, CA Scrap Metal Prices",
    "website": "https://www.priceofscrapmetals.com/california/sacramento/",
    "street_address": "750 Richards Boulevard",
    "city": "and Univers",
    "region": "AL",
    "postal_code": "",
    "country": "United States",
    "phones": [],
    "emails": [],
    "whatsapp": [],
    "social_links": [],
    "opening_hours": "",
    "materials": [
      "Copper",
      "Brass",
      "Steel",
      "Electronic",
      "Aluminum",
      "Precious Metals",
      "Iron",
      "Stainless Steel",
      "Scrap Metal",
      "Lead"
    ],
    "material_prices": [],
    "description": "Find the Latest Scrap Metal Prices in Sacramento, California today. Check the current scrap price for copper, steel, aluminum, brass, gold and other ferrous and non-ferrous materials."
  },
  {
    "name": "Junkyards in Arizona",
    "website": "https://junkyardsnearme.net/junkyards-in-arizona/",
    "street_address": "85120\nABC Auto Wrecking Used Auto Parts 4302 E Illinois St",
    "city": "Tucson",
    "region": "AZ",
    "postal_code": "85714",
    "country": "United States",
    "phones": [],
    "emails": [],
    "whatsapp": [],
    "social_links": [],
    "opening_hours": "",
    "materials": [
      "Battery",
      "Auto Parts",
      "Steel",
      "Iron",
      "Scrap Metal"
    ],
    "material_prices": [],
    "description": "Find junkyards in Arizona. Our site maps junkyards in Arizona and helps you find used parts cheap. You can get a free..."
  },
  {
    "name": "San Jose, California - 95131 Local Recycling Centers",
    "website": "https://recyclingcenters.org/California/San_Jose_95131_recycling_centers.php",
    "street_address": "400 Martin Ave",
    "city": "Santa Clara",
    "region": "CA",
    "postal_code": "95050",
    "country": "United States",
    "phones": [],
    "emails": [],
    "whatsapp": [],
    "social_links": [],
    "opening_hours": "",
    "materials": [
      "Iron",
      "Electronic",
      "Steel"
    ],
    "material_prices": [],
    "description": "San Jose, California 95131 Local Recycling Centers and Recycling Information and Statistics"
  },
  {
    "name": "Metal Recycling in Los Angeles",
    "website": "https://www.industrialscrapmetal.com/california/los-angeles-metal-recycling/",
    "street_address": "86 million residents as of 2022. It is the third-most visited city in the U.S. with over 4.6 million visitors as of 2019.The area that became Los Angeles was originally inhabited by the indigenous Tongva peopl",
    "city": "e a",
    "region": "ND",
    "postal_code": "",
    "country": "United States",
    "phones": [],
    "emails": [
      "billy@warank.com"
    ],
    "whatsapp": [],
    "social_links": [],
    "opening_hours": "",
    "materials": [
      "Battery",
      "Copper",
      "Brass",
      "Steel",
      "Aluminum",
      "Iron",
      "Scrap Metal",
      "Lead",
      "Zinc"
    ],
    "material_prices": [],
    "description": "Metal Recycling in Los Angeles, CA by Industrial Scrap Metal Recycling company. We recycle all types of metal like Alloy Steel, Aluminum, Appliances recycling, Automobile Batteries, and Brass in Los Angeles, CA, etc."
  },
  {
    "name": "We Sell Used Car Parts",
    "website": "https://www.jiautodismantling.com/",
    "street_address": "5226   \n      Monday to Friday 8AM-5PM      Saturday 8AM-2PM      Sunday Closed  \n       969 Heritage Rd",
    "city": "San Diego",
    "region": "CA",
    "postal_code": "92154",
    "country": "United States",
    "phones": [
      "(619) 816-5226"
    ],
    "emails": [],
    "whatsapp": [],
    "social_links": [],
    "opening_hours": "",
    "materials": [
      "Auto Parts"
    ],
    "material_prices": [],
    "description": "In San Diego, California, J&I Auto Dismantling is the best place to find all used auto parts. 969 Heritage Rd San Diego, CA 92154"
  },
  {
    "name": "Maita Subaru Parts Department inSacramento (CA)",
    "website": "https://usjunkyards.com/st-california/cy-sacramento/ci-sacramento/yd-16377-maita-subaru-parts-department/",
    "street_address": "2023\n\t\t\t\t\t\t\t\t\t\t\t\n\n\n\n\n\n\n\n\n\n \nJesse Dalton\n\n\n\nHaving car troubles. That freakin st",
    "city": "inks. B",
    "region": "UT",
    "postal_code": "",
    "country": "United States",
    "phones": [
      "(888) 853-0481",
      "(916) 486-8500"
    ],
    "emails": [],
    "whatsapp": [],
    "social_links": [],
    "opening_hours": "",
    "materials": [
      "Auto Parts",
      "Scrap Metal",
      "Catalytic Converter"
    ],
    "material_prices": [],
    "description": "Maita Subaru Parts Department is located in the city of Sacramento, CA  ᐉ Contact information, reviews, photos, and opening hours are on our USJunkYards salvage yard database."
  },
  {
    "name": "Nevada Steel and Recycling Locations",
    "website": "https://www.pacific-steel.com/nevada/",
    "street_address": "5 River Dr",
    "city": "S\nGreat Falls",
    "region": "MT",
    "postal_code": "59405",
    "country": "United States",
    "phones": [
      "(800) 889-6264",
      "(406) 727-6222"
    ],
    "emails": [],
    "whatsapp": [],
    "social_links": [],
    "opening_hours": "",
    "materials": [
      "Aluminum",
      "Scrap Metal",
      "Steel"
    ],
    "material_prices": [],
    "description": "Nevada steel and recycling has the services you need. Visit our website today to learn more about our location and get in contact with our team."
  },
  {
    "name": "Industrial Scrap Metal in San Diego",
    "website": "https://www.industrialscrapmetal.com/california/san-diego-industrial-scrap-metal/",
    "street_address": "200 years later.\n\n\n\n\n\n\n\n\n\n\nProfessional Scrap Metal Recycling Services in San Diego\n\n\n\n\n\n\n\n \n \nMetal Recycling \n\n\n\n \n \nDemolition Contractors\n\n\n\n \n \nCopper Recycling \n\n\n\n\n\n\n\n\n\n\n\n\nAreas We Serve For Industrial Scrap Metal in California\n\nActonAdelantoAgouraAgoura HillsAgua DulceAlhambraAliso ViejoAlondra ParkAlpineAltadenaAnaheimAnzaApple ValleyArcadiaArlanzaArtesiaAtwaterAvalonAvocado HeightsAzusaBaldwin ParkBandiniBanningBarstowBarstow HeightsBeaumontBellBell GardensBellflowerBelvedereBermuda DunesBeverly HillsBig Bear CityBig Bear LakeBig RiverBloomingtonBlytheBonitaBonsallBorrego SpringsBostoniaBoyle HeightsBrandeisBreaBrentwoodBuelltonBuena ParkBurbankCabazonCalabasasCalimesaCamarilloCameron CornersCamp Pendleton NorthCamp Pendleton SouthCampoCanoga ParkCanyon CountryCanyon LakeCardiff-by-the-SeaCarlsbadCarmel ValleyCarpinteriaCarsonCasa ConejoCasa de Oro-Mount HelixCastaicCathedral CityCentury CityCerritosChannel Islands BeachCharter OakChatsworthCherry ValleyChinoChino HillsChula VistaCitrusClaremontCoachellaColtonCommerceComptonCoronaCoronadoCosta MesaCoto De CazaCovinaCowan HeightsCrestCrestlineCudahyCulver CityCypressDana PointDeclezvilleDel AireDel MarDel ReyDescansoDesert EdgeDesert Hot SpringsDesert View HighlandsDiamond BarDove CanyonDowneyDuarteEagle RockEast HemetEast IrvineEast La MiradaEast Los AngelesEast PasadenaEast Rancho DominguezEast San GabrielEast WhittierEastvaleEcho ParkEdenEl CajonEl Cerrito CoronaEl MonteEl RioEl SegundoEl SerenoEncinitasEncinoEscondidoEucalyptus HillsFairbanks RanchFairviewFallbrookFillmoreFlorence-GrahamFontanaFoothill RanchForest FallsFort IrwinFountain ValleyFremontFrench ValleyFullertonGarden GroveGardenaGarnetGlen AvonGlendaleGlendoraGoletaGood HopeGrand TerraceGranite HillsGrapelandGreen AcresGuadalupeHacienda HeightsHarbison CanyonHawaiian GardensHawthorneHelendaleHemetHermosa BeachHesperiaHi VistaHidden HillsHidden MeadowsHighgroveHighlandHighland ParkHillgroveHinkleyHollywoodHome GardensHomelandHope RanchHuntington BeachHuntington ParkIdyllwildIdyllwild-Pine CoveImperial BeachIndian WellsIndioInglewoodIrvineIrwindaleIsla VistaJamulJoshua TreeJurupa ValleyKoreatownKramer Junct",
    "city": "ion",
    "region": "LA",
    "postal_code": "",
    "country": "United States",
    "phones": [],
    "emails": [
      "billy@warank.com"
    ],
    "whatsapp": [],
    "social_links": [],
    "opening_hours": "",
    "materials": [
      "Copper",
      "Brass",
      "Steel",
      "Electronic",
      "Aluminum",
      "Iron",
      "Scrap Metal",
      "Lead",
      "Zinc"
    ],
    "material_prices": [],
    "description": "Largest Scrap Metal Recycling in San Diego, CA by Industrial Scrap Metal, We are expert in Steel Recycling, Scrap Metal Recycling. Contact Industrial Scrap Metal for building demolishing and recycling."
  },
  {
    "name": "Bins and Containers",
    "website": "https://atlasironandmetal.com/bins-and-containers/",
    "street_address": "10019 S Alameda Street",
    "city": "Los Angeles",
    "region": "CA",
    "postal_code": "90002",
    "country": "United States",
    "phones": [
      "(800) 540-5184",
      "(566) 518-4800",
      "(323) 566-5184"
    ],
    "emails": [],
    "whatsapp": [],
    "social_links": [],
    "opening_hours": "",
    "materials": [
      "Appliance",
      "Copper",
      "Steel",
      "Iron",
      "Scrap Metal"
    ],
    "material_prices": [],
    "description": "Atlas Iron & Metal Co. provides bin & container services for recycling scrap metal in Los Angeles. Recycle debris, metal, copper, stainless steel & automotive scrap."
  },
  {
    "name": "San Jose Scrap Metal Buyers & Recycling Centers",
    "website": "https://scrapvisor.com/california/san-jose/",
    "street_address": "1788 Rogers Ave",
    "city": "San Jose",
    "region": "CA",
    "postal_code": "95112",
    "country": "United States",
    "phones": [
      "(408) 727-5279",
      "(408) 436-1107",
      "(408) 494-4200"
    ],
    "emails": [],
    "whatsapp": [],
    "social_links": [],
    "opening_hours": "",
    "materials": [
      "Copper",
      "Brass",
      "Steel",
      "Aluminum",
      "Iron",
      "Stainless Steel",
      "Scrap Metal",
      "Lead",
      "Zinc"
    ],
    "material_prices": [],
    "description": "Find trusted scrap metal buyers and recycling centers in San Jose. View up-to-date scrap metal prices, explore our interactive map of local scrap yards, and connect with reputable companies for fast and profitable scrap sales."
  },
  {
    "name": "Junkyards & Auto Salvagein Anaheim, CA",
    "website": "https://preferredjunkyard.com/california/anaheim/",
    "street_address": "1360 S Anaheim Blvd",
    "city": "Anaheim",
    "region": "CA",
    "postal_code": "92805",
    "country": "United States",
    "phones": [],
    "emails": [],
    "whatsapp": [],
    "social_links": [],
    "opening_hours": "",
    "materials": [
      "Battery",
      "Auto Parts",
      "Appliance",
      "Electronic",
      "Iron",
      "Lead"
    ],
    "material_prices": [],
    "description": "Find Trusted Junkyards and Auto Salvage Yards in Anaheim, California that Buy Junk Cars and Sell Reliable Used Auto and Truck Parts."
  },
  {
    "name": "PROFESSIONAL CRV RECYCLING SERVICESSERVING SOUTH SAN DIEGO COUNTY AND LOCATED IN CHULA VISTA, CA",
    "website": "https://www.mikesrecycling.net/",
    "street_address": "2688 3151 Main St",
    "city": "Chula Vista",
    "region": "CA",
    "postal_code": "91911",
    "country": "United States",
    "phones": [
      "(619) 426-2688"
    ],
    "emails": [],
    "whatsapp": [],
    "social_links": [],
    "opening_hours": "",
    "materials": [
      "Scrap Metal",
      "Iron"
    ],
    "material_prices": [],
    "description": "Mike's Recycling is your local provider of professional recycling services in Chula Vista, CA and the surrounding areas. Give us a call today!"
  },
  {
    "name": "Hours of Operation",
    "website": "https://www.metalrecyclingservicesofcalifornia.com/",
    "street_address": "",
    "city": "",
    "region": "",
    "postal_code": "",
    "country": "United States",
    "phones": [
      "(266) 942-2155"
    ],
    "emails": [
      "customerservice@mrsofca.com",
      "touchcustomerservice@mrsofca.com"
    ],
    "whatsapp": [],
    "social_links": [],
    "opening_hours": "",
    "materials": [
      "Copper",
      "Brass",
      "Steel",
      "Catalytic Converter",
      "Aluminum",
      "Stainless Steel"
    ],
    "material_prices": [],
    "description": "Metal Recycling , Scrap Yard buyers of Copper, Aluminum, HVAC , in Southern California"
  },
  {
    "name": "New Arrivals",
    "website": "https://www.tapatioauto.com/product-category/new-arrivals/",
    "street_address": "1851 Nirvana Ave",
    "city": "Chu",
    "region": "LA",
    "postal_code": "",
    "country": "United States",
    "phones": [
      "(800) 388-9134"
    ],
    "emails": [],
    "whatsapp": [],
    "social_links": [],
    "opening_hours": "",
    "materials": [],
    "material_prices": [],
    "description": ""
  },
  {
    "name": "Recycling",
    "website": "https://www.siskiyoucounty.gov/generalservices/page/recycling",
    "street_address": "00 pm\n\n190 Greenhorn Road",
    "city": "Yreka",
    "region": "CA",
    "postal_code": "96097",
    "country": "United States",
    "phones": [
      "(530) 842-8123",
      "(866) 652-2876",
      "(530) 842-8220"
    ],
    "emails": [
      "generalservices@co.siskiyou.ca.us"
    ],
    "whatsapp": [],
    "social_links": [],
    "opening_hours": "",
    "materials": [
      "Aluminum",
      "Iron"
    ],
    "material_prices": [],
    "description": ""
  },
  {
    "name": "We Pay Cash for Cars In San Diego, CA",
    "website": "https://junkyardsandiego.com/",
    "street_address": "",
    "city": "",
    "region": "",
    "postal_code": "",
    "country": "United States",
    "phones": [
      "(619) 500-7412"
    ],
    "emails": [],
    "whatsapp": [],
    "social_links": [],
    "opening_hours": "",
    "materials": [
      "Auto Parts"
    ],
    "material_prices": [],
    "description": ""
  },
  {
    "name": "Recycling Center Phoenix | Scrap Metal Recycling | Aluminum Cans | Copper",
    "website": "https://avondalerecycling.com/",
    "street_address": "940 E. Brinker Dr.",
    "city": "Avondale",
    "region": "AZ",
    "postal_code": "85323",
    "country": "United States",
    "phones": [
      "(623) 925-9904"
    ],
    "emails": [],
    "whatsapp": [],
    "social_links": [],
    "opening_hours": "",
    "materials": [
      "Appliance",
      "Copper",
      "Brass",
      "Steel",
      "Aluminum",
      "Scrap Metal"
    ],
    "material_prices": [],
    "description": "Phoenix recycling center buying all kinds of scrap metal including, copper, aluminum cans, brass, and other scrap junk including central AC units, dishwashers, refrigerators, stoves, microwaves, water heaters and furnaces."
  },
  {
    "name": "Henderson, Nevada",
    "website": "https://www.autowrecking.com/locations/henderson",
    "street_address": "1701 Athol St.",
    "city": "Henderson",
    "region": "NV",
    "postal_code": "89011",
    "country": "United States",
    "phones": [
      "(702) 551-8686",
      "(855) 339-1932"
    ],
    "emails": [],
    "whatsapp": [],
    "social_links": [],
    "opening_hours": "Store Hours Monday - Friday 8 am - 5 pm",
    "materials": [],
    "material_prices": [],
    "description": "Quality used car & truck parts, engines, and transmissions from our vehicle salvage yards. Do it yourself for less with recycled auto parts—the B&R way!"
  },
  {
    "name": "Best Recycling Prices in Sacramento",
    "website": "https://recyclingcenternear.com/",
    "street_address": "8110 Junipero St",
    "city": "Sacramento",
    "region": "CA",
    "postal_code": "95828",
    "country": "United States",
    "phones": [
      "(916) 827-3931"
    ],
    "emails": [],
    "whatsapp": [],
    "social_links": [],
    "opening_hours": "",
    "materials": [
      "Copper",
      "Appliance",
      "Brass",
      "Steel",
      "Aluminum",
      "Iron",
      "Scrap Metal",
      "Stainless Steel"
    ],
    "material_prices": [],
    "description": "Best Recycling Prices in Sacramento. CRV Materials, Scrap Materials, Cans, Glass, Plastic and Copper, Wires, Brass, Aluminum, Stainless Steel. Call Now!"
  },
  {
    "name": "All Arizona Auto Parts",
    "website": "https://autopartsaz.com/",
    "street_address": "40 years of auto experience between them. They are dedicated to finding high-quality replacement parts for each of our customers. We Have",
    "city": "You CoveredWelco",
    "region": "ME",
    "postal_code": "",
    "country": "United States",
    "phones": [
      "(602) 840-3263"
    ],
    "emails": [],
    "whatsapp": [],
    "social_links": [],
    "opening_hours": "",
    "materials": [
      "Auto Parts"
    ],
    "material_prices": [],
    "description": "Arizona Ford Parts, Ltd. Specializing in all makes all models"
  },
  {
    "name": "Keep California'sMetal-RecyclingCapability Strong—Yes on SB 404",
    "website": "https://calmetalrecyclers.com/",
    "street_address": "404\n            \nRead the complete bill here\n\n\n\n\n\n\n\n\n\n\n\n\n\n\n\n\n\nAs the largest st",
    "city": "ate a",
    "region": "ND",
    "postal_code": "",
    "country": "United States",
    "phones": [],
    "emails": [],
    "whatsapp": [],
    "social_links": [],
    "opening_hours": "",
    "materials": [
      "Scrap Metal",
      "Iron"
    ],
    "material_prices": [],
    "description": ""
  },
  {
    "name": "WILLIS RECYCLING",
    "website": "https://www.willisrecycling.com/",
    "street_address": "",
    "city": "",
    "region": "",
    "postal_code": "",
    "country": "United States",
    "phones": [],
    "emails": [
      "willisrecycling@yahoo.com"
    ],
    "whatsapp": [],
    "social_links": [],
    "opening_hours": "",
    "materials": [
      "Copper",
      "Steel",
      "Electronic",
      "Aluminum",
      "Iron",
      "Stainless Steel"
    ],
    "material_prices": [],
    "description": ""
  },
  {
    "name": "Auto Gator - We Sell Used Auto Parts and Repairable Vehicles",
    "website": "https://www.autogator.com/",
    "street_address": "1961 PFE Rd",
    "city": "Roseville",
    "region": "CA",
    "postal_code": "95747",
    "country": "United States",
    "phones": [
      "(800) 833-9292",
      "(855) 456-0456"
    ],
    "emails": [],
    "whatsapp": [],
    "social_links": [],
    "opening_hours": "",
    "materials": [
      "Auto Parts",
      "Iron"
    ],
    "material_prices": [],
    "description": ""
  },
  {
    "name": "Auto Salvage | Inglewood | Pico Rivera | Norwalk | 323-583-1094",
    "website": "https://upickpartsla.com/find-used-auto-parts.html",
    "street_address": "1094 \n\n\n\n\n\n\n\n\n\n\n\n\n\n\n\n\n\n\n\n\n\n\n\n\n\n\n\n\n\n\n\n\n\n\n\n\n\n\n\n\n323-583-1094\n\n\n\n\n\n\n\n\nToggle navigation\n\n\n\nHOME\nWE BUY JUNK CARS\nGALLERY\nSEARCH INVENTORY\nABOUT\nCONTACT\n\n\n\n\n\n\nSEARCH OUR INVENTORY\n\n\n \n\n\n\n\n\n\n\n\n\n\n       8103 South Alameda Street",
    "city": "Los Angeles",
    "region": "CA",
    "postal_code": "90001-4108",
    "country": "United States",
    "phones": [
      "(323) 583-1094"
    ],
    "emails": [],
    "whatsapp": [],
    "social_links": [],
    "opening_hours": "",
    "materials": [],
    "material_prices": [],
    "description": "Pick your part at our auto salvage yard and save serving Compton, Downey, Inglewood and beyond in Southern CA."
  },
  {
    "name": "Professional Scrap Metal Recycling Services",
    "website": "https://www.mikesrecyclinginc.com/",
    "street_address": "1778 Broadway",
    "city": "Chu",
    "region": "LA",
    "postal_code": "",
    "country": "United States",
    "phones": [],
    "emails": [],
    "whatsapp": [],
    "social_links": [],
    "opening_hours": "",
    "materials": [
      "Copper",
      "Brass",
      "Aluminum",
      "Iron",
      "Scrap Metal"
    ],
    "material_prices": [],
    "description": "Are you looking to scrap metal in Chula Vista, CA? Stop by Mike’s Recycling, Inc, to get fast cash."
  },
  {
    "name": "About Atlas Iron & Metal Co. | Metal Scrap Yard | Los Angeles, CA",
    "website": "https://atlasironandmetal.com/about-us/",
    "street_address": "10019 S Alameda Street",
    "city": "Los Angeles",
    "region": "CA",
    "postal_code": "90002",
    "country": "United States",
    "phones": [
      "(800) 540-5184",
      "(566) 518-4800",
      "(323) 566-5184"
    ],
    "emails": [],
    "whatsapp": [],
    "social_links": [],
    "opening_hours": "",
    "materials": [
      "Copper",
      "Iron",
      "Scrap Metal",
      "Steel"
    ],
    "material_prices": [],
    "description": "Atlas Iron & Metal Co. provides metal scrap recycling & disposal in Los Angeles. We buy aluminum, metal, copper, stainless steel, brass, nickel & automotive scrap."
  },
  {
    "name": "LOCATIONS | Nevada Recycling",
    "website": "https://www.nevadarecycling.com/locations",
    "street_address": "4611 Mitchell St",
    "city": "North Las Vegas",
    "region": "NV",
    "postal_code": "89081",
    "country": "United States",
    "phones": [
      "(702) 856-0866",
      "(702) 643-2218"
    ],
    "emails": [
      "dispatch@nevadarecycling.com",
      "sean@nevadarecycling.comhomerecyclablesall",
      "sean@nevadarecycling.com"
    ],
    "whatsapp": [],
    "social_links": [],
    "opening_hours": "",
    "materials": [
      "Scrap Metal",
      "Iron",
      "Steel"
    ],
    "material_prices": [],
    "description": "We have two convenient locations! Nevada Recycling is located in North Las Vegas and Henderson."
  },
  {
    "name": "SAN DIEGO'S HIGHEST PRICES",
    "website": "https://sandiegocountyrecycling.com/",
    "street_address": "3974 Spring Drive",
    "city": "Spring Valley",
    "region": "CA",
    "postal_code": "91977",
    "country": "United States",
    "phones": [
      "(619) 741-9780"
    ],
    "emails": [
      "sdc_recycling@yahoo.com"
    ],
    "whatsapp": [],
    "social_links": [],
    "opening_hours": "",
    "materials": [
      "Scrap Metal"
    ],
    "material_prices": [],
    "description": "San Diego's leading recycling center in scrap metal and crv recycling. We buy copper, brass, aluminum, cans, plastic bottles and glass bottles. Fast & Friendly."
  },
  {
    "name": "San Leandro Headquarters & Metal Sales Department - Alco Metals",
    "website": "https://alcometals.com/san-leandro/",
    "street_address": "2140 Davis St.",
    "city": "San Leandro",
    "region": "CA",
    "postal_code": "94577",
    "country": "United States",
    "phones": [
      "(510) 562-1354",
      "(510) 562-1107"
    ],
    "emails": [
      "sanleandro@alcometals.com",
      "safety@alcometals.com",
      "accountspayable@alcometals.com"
    ],
    "whatsapp": [],
    "social_links": [],
    "opening_hours": "",
    "materials": [
      "Appliance",
      "Iron",
      "Scrap Metal"
    ],
    "material_prices": [],
    "description": ""
  },
  {
    "name": "ABC Auto Parts inSouth San Francisco (CA)",
    "website": "https://usjunkyards.com/st-california/cy-san-mateo/ci-south-san-francisco/yd-2103-abc-auto-parts/",
    "street_address": "1650 Davidson Ave",
    "city": "San Francis",
    "region": "CO",
    "postal_code": "",
    "country": "United States",
    "phones": [
      "(415) 826-8676",
      "(888) 853-0481"
    ],
    "emails": [],
    "whatsapp": [],
    "social_links": [],
    "opening_hours": "",
    "materials": [
      "Auto Parts",
      "Scrap Metal",
      "Iron",
      "Steel"
    ],
    "material_prices": [],
    "description": "ABC Auto Parts is located in the city of South San Francisco, CA  ᐉ Contact information, reviews, photos, and opening hours are on our USJunkYards salvage yard database. Closed."
  },
  {
    "name": "Los Angeles,California Junkyards & Salvage Yards",
    "website": "https://www.rustysautosalvage.com/california/los-angeles.html",
    "street_address": "",
    "city": "",
    "region": "",
    "postal_code": "",
    "country": "United States",
    "phones": [
      "(866) 439-4401",
      "(206) 237-8448"
    ],
    "emails": [],
    "whatsapp": [],
    "social_links": [],
    "opening_hours": "",
    "materials": [
      "Scrap Metal"
    ],
    "material_prices": [],
    "description": "Our network of Los Angeles California junkyards and auto salvage yards will pay you cash for your junk car on the spot and offer free junk car removal in all of Los Angeles CA."
  },
  {
    "name": "Las Vegas, Nevada",
    "website": "https://www.autowrecking.com/locations/lasvegas",
    "street_address": "4540 Smiley Rd.",
    "city": "Las Vegas",
    "region": "NV",
    "postal_code": "89115",
    "country": "United States",
    "phones": [
      "(800) 578-6787",
      "(702) 643-1771",
      "(855) 339-1932"
    ],
    "emails": [],
    "whatsapp": [],
    "social_links": [],
    "opening_hours": "Store Hours Monday - Friday 8 am - 5 pm",
    "materials": [],
    "material_prices": [],
    "description": "Quality used car & truck parts, engines, and transmissions from our vehicle salvage yards. Do it yourself for less with recycled auto parts—the B&R way!"
  },
  {
    "name": "San Diego, California - 92120 Local Recycling Centers",
    "website": "https://recyclingcenters.org/California/San_Diego_92120_recycling_centers.php",
    "street_address": "5180 Convoy St",
    "city": "San Diego",
    "region": "CA",
    "postal_code": "92111",
    "country": "United States",
    "phones": [],
    "emails": [],
    "whatsapp": [],
    "social_links": [],
    "opening_hours": "",
    "materials": [
      "Aluminum",
      "Scrap Metal",
      "Iron",
      "Electronic"
    ],
    "material_prices": [],
    "description": "San Diego, California 92120 Local Recycling Centers and Recycling Information and Statistics"
  },
  {
    "name": "City of San Diego Official Website",
    "website": "https://www.sandiego.gov/environmental-services/recycling/centers/miramarrecycle",
    "street_address": "5165 Convoy Street",
    "city": "San Diego",
    "region": "CA",
    "postal_code": "92111",
    "country": "United States",
    "phones": [
      "(858) 268-8971"
    ],
    "emails": [],
    "whatsapp": [],
    "social_links": [],
    "opening_hours": "",
    "materials": [
      "Copper",
      "Appliance",
      "Brass",
      "Steel",
      "Electronic",
      "Aluminum",
      "Iron",
      "Scrap Metal"
    ],
    "material_prices": [],
    "description": ""
  },
  {
    "name": "JunkYards and Salvage Yards inArizona (AZ)",
    "website": "https://usjunkyards.com/st-arizona/",
    "street_address": "0481 to sell your car. We make it simpl",
    "city": "e a",
    "region": "ND",
    "postal_code": "",
    "country": "United States",
    "phones": [
      "(888) 853-0481"
    ],
    "emails": [],
    "whatsapp": [],
    "social_links": [],
    "opening_hours": "",
    "materials": [
      "Auto Parts",
      "Scrap Metal"
    ],
    "material_prices": [],
    "description": "Find the nearest car junkyards and salvage yards near you in Arizona ⚡ USJunkYards provides a list of all salvage yards where you can dispose of your car and get Cash."
  },
  {
    "name": "Nissan Salvage Parts Sacramento",
    "website": "https://ipullupull.com/inventory/nissan-salvage-parts-sacramento/",
    "street_address": "3080\n\n\n\n\n\n\n\nThe date each Vehicle was set on the yard is shown. Some vehicles more than 30 days old may be in process of being removed from the yard and no longer available. Inventory changes often in our yards so the parts you need may or may not be on the vehicle. Please visit the yard for the most accurate availability. For general quest",
    "city": "ions",
    "region": "OR",
    "postal_code": "",
    "country": "United States",
    "phones": [
      "(559) 445-4117",
      "(909) 623-6108",
      "(916) 409-3080"
    ],
    "emails": [],
    "whatsapp": [],
    "social_links": [],
    "opening_hours": "",
    "materials": [
      "Auto Parts"
    ],
    "material_prices": [],
    "description": "With dozens of scrap Nissans - from the Altima through the Xterra - we've got everything you can imagine: from brakes to transmissions, oil caps to carburettors, and everything in between."
  },
  {
    "name": "San Diego, California Junk Yards",
    "website": "https://www.usedpart.us/used-auto-parts/california/san-diego/",
    "street_address": "",
    "city": "",
    "region": "",
    "postal_code": "",
    "country": "United States",
    "phones": [
      "(800) 646-4790"
    ],
    "emails": [
      "sales@usedpart.us"
    ],
    "whatsapp": [],
    "social_links": [],
    "opening_hours": "",
    "materials": [
      "Battery",
      "Auto Parts"
    ],
    "material_prices": [],
    "description": "Buy OEM used auto parts from local San Diego, California Junk Yards and save thousands of dollars. Our ASE certified techs at San Diego, California Junk Yards test and inspect all parts before being sold."
  },
  {
    "name": "Los Angeles Recycling Center",
    "website": "https://forscrap.com/ca-los-angeles-chatsworth-yard",
    "street_address": "20749 Prairie St",
    "city": "Chatsworth",
    "region": "CA",
    "postal_code": "91311",
    "country": "United States",
    "phones": [
      "(866) 567-2727",
      "(818) 357-7581"
    ],
    "emails": [
      "info@forscrap.com"
    ],
    "whatsapp": [],
    "social_links": [],
    "opening_hours": "Mon-Fri 8:00am - 5:00pm",
    "materials": [
      "Copper",
      "Brass",
      "Steel",
      "Aluminum",
      "Scrap Metal",
      "Stainless Steel"
    ],
    "material_prices": [],
    "description": "Scrap metal recycling will be profitable with Greener Recycling, a scrap yard near you that service Los Angeles, Orange and Ventura counties. Check out out metal scrap rates to insure they're the best!"
  },
  {
    "name": "Steel Scrap",
    "website": "https://atlasironandmetal.com/steel-scrap/",
    "street_address": "10019 S Alameda Street",
    "city": "Los Angeles",
    "region": "CA",
    "postal_code": "90002",
    "country": "United States",
    "phones": [
      "(800) 540-5184",
      "(566) 518-4800",
      "(323) 566-5184"
    ],
    "emails": [],
    "whatsapp": [],
    "social_links": [],
    "opening_hours": "",
    "materials": [
      "Copper",
      "Appliance",
      "Steel",
      "Iron",
      "Stainless Steel",
      "Scrap Metal",
      "Lead"
    ],
    "material_prices": [],
    "description": "Atlas Iron & Metal Co. provides stainless steel scrap yard recycling services in Los Angeles. We buy stainless steel, debris, motors, appliances & automotive scrap for cash."
  },
  {
    "name": "Los Angeles Scrap Metal Buyers & Recycling Centers",
    "website": "https://scrapvisor.com/california/los-angeles/",
    "street_address": "0\n\n\n\n\n\n\n\n\nSmart Recycling\n414 W C St",
    "city": "Los Angeles",
    "region": "CA",
    "postal_code": "90744",
    "country": "United States",
    "phones": [
      "(323) 564-9969",
      "(888) 608-5203",
      "(323) 778-0058"
    ],
    "emails": [],
    "whatsapp": [],
    "social_links": [],
    "opening_hours": "",
    "materials": [
      "Copper",
      "Brass",
      "Steel",
      "Aluminum",
      "Iron",
      "Stainless Steel",
      "Scrap Metal",
      "Lead",
      "Zinc"
    ],
    "material_prices": [],
    "description": "Find trusted scrap metal buyers and recycling centers in Los Angeles. View up-to-date scrap metal prices, explore our interactive map of local scrap yards, and connect with reputable companies for fast and profitable scrap sales."
  },
  {
    "name": "Scrap Metal Recycling San Jose",
    "website": "https://flatrate-junkremoval.com/california/san-jose/scrap-metal-recycling-san-jose/",
    "street_address": "000 peopl",
    "city": "e a",
    "region": "ND",
    "postal_code": "",
    "country": "United States",
    "phones": [
      "(800) 299-5865"
    ],
    "emails": [
      "info@flatrate-junkremoval.com",
      "affordable1-800-299-5865info@flatrate-junkremoval.comhomepricingservicesresidential",
      "emailinfo@flatrate-junkremoval.com"
    ],
    "whatsapp": [],
    "social_links": [],
    "opening_hours": "",
    "materials": [
      "Appliance",
      "Electronic",
      "Scrap Metal"
    ],
    "material_prices": [],
    "description": "You’ve got junk, we’ve got the solution. If you’re looking for scrap metal recycling and disposal services in San Jose, Flat Rate Junk Removal is your clear choice – call 1-800-299-5865 today."
  },
  {
    "name": "Buy Auto Parts",
    "website": "https://www.qualityautoparts.store/",
    "street_address": "",
    "city": "Sacramento",
    "region": "CA",
    "postal_code": "95814",
    "country": "United States",
    "phones": [],
    "emails": [
      "sales@qualityautoparts.store"
    ],
    "whatsapp": [],
    "social_links": [],
    "opening_hours": "",
    "materials": [
      "Battery",
      "Auto Parts",
      "Electronic",
      "Catalytic Converter",
      "Iron",
      "Lead"
    ],
    "material_prices": [],
    "description": "Quality Auto Parts - Best Place to Buy Used Auto Parts."
  },
  {
    "name": "HOME | Nevada Recycling",
    "website": "https://www.nevadarecycling.com/",
    "street_address": "",
    "city": "",
    "region": "",
    "postal_code": "",
    "country": "United States",
    "phones": [
      "(702) 856-0866",
      "(702) 643-2218"
    ],
    "emails": [],
    "whatsapp": [],
    "social_links": [],
    "opening_hours": "",
    "materials": [
      "Scrap Metal",
      "Iron",
      "Steel"
    ],
    "material_prices": [],
    "description": "The Benefits of recycling are numerous. Recycling and reusing materials saves energy, conserves natural resources, prevents pollution and reduces the volume of discards that are thrown into our landfills. Nevada Recycling is here for all of your business recycling needs."
  },
  {
    "name": "Sacramento Recycling and Transfer Station",
    "website": "https://wmnorcalnev.com/facilities/sacramento-recycling-center/",
    "street_address": "8491 Fruitridge Road",
    "city": "Sacramento",
    "region": "CA",
    "postal_code": "95826",
    "country": "United States",
    "phones": [
      "(916) 737-4880"
    ],
    "emails": [
      "wmncn@wm.com"
    ],
    "whatsapp": [],
    "social_links": [],
    "opening_hours": "",
    "materials": [
      "Copper",
      "Appliance",
      "Steel",
      "Electronic",
      "Aluminum",
      "Iron",
      "Scrap Metal",
      "Lead"
    ],
    "material_prices": [],
    "description": "Sacramento Recycling Center is WM's one-stop waste disposal, material recovery facility, e-waste disposal, transfer station and more in Sacramento County."
  },
  {
    "name": "Radius Recycling – San Jose",
    "website": "https://iscrapapp.com/yards/us-california-san-jose-radius-recycling-san-jose/",
    "street_address": "75\nFire Wire\nForktruck Battery\nFSX 414\nFuses\nGold\nHard Drive Boards\nHard Drives\nHard Drives without Boards\nHastelloy Solids\nHastelloy Turnings\nHeliax Wire\nHigh Speed Steel\nHousewire\nIncomplete Car\nInconel\nInconel 792\nInconel 800\nInconel 825\nInk Cartridges\nInsulated Aluminum Wire\nInsulated Copper Cable\nInsulated Copper Wire\nInsulated Steel BX\nInvar\nJunkshop Extrusion\nKeyboard",
    "city": "s\nKov",
    "region": "AR",
    "postal_code": "",
    "country": "United States",
    "phones": [
      "(408) 452-0777"
    ],
    "emails": [],
    "whatsapp": [],
    "social_links": [],
    "opening_hours": "",
    "materials": [
      "Battery",
      "Copper",
      "Brass",
      "Steel",
      "Catalytic Converter",
      "Aluminum",
      "Iron",
      "Stainless Steel",
      "Scrap Metal",
      "Lead"
    ],
    "material_prices": [],
    "description": "Radius Recycling - San Jose, Scrap Metal Yard in San Jose, California"
  },
  {
    "name": "AMERICAN IMPORTS",
    "website": "http://americanimportsautoparts.com/",
    "street_address": "285 LEO AVE.",
    "city": "SAN JOSE",
    "region": "CA",
    "postal_code": "95112",
    "country": "United States",
    "phones": [
      "(800) 610-0070",
      "(408) 275-9261",
      "(408) 275-9030"
    ],
    "emails": [
      "wayfast88@msn.com"
    ],
    "whatsapp": [],
    "social_links": [],
    "opening_hours": "Hours of Operation (PST/PDT): Monday - Saturday 8am -5pm Sunday Closed",
    "materials": [],
    "material_prices": [],
    "description": "AMERICAN IMPORTS: serving the SAN JOSE, CA area with quality used parts"
  },
  {
    "name": "Los Angeles County CountyCalifornia Junkyards & Salvage Yards!",
    "website": "https://www.rustysautosalvage.com/california/los-angeles-county.html",
    "street_address": "2155    Subaru Forest",
    "city": "er  Ye",
    "region": "AR",
    "postal_code": "",
    "country": "United States",
    "phones": [
      "(866) 439-4401"
    ],
    "emails": [],
    "whatsapp": [],
    "social_links": [],
    "opening_hours": "",
    "materials": [],
    "material_prices": [],
    "description": "Our network of Los Angeles County CA junkyards and auto salvage yards will pay you cash for your junk car on the spot and offer free junk car removal in all of Los Angeles County CA."
  },
  {
    "name": "Sun Lite Metals",
    "website": "https://sunlitemetals.com/",
    "street_address": "2210 East 85th Street",
    "city": "Los Angeles",
    "region": "CA",
    "postal_code": "90001",
    "country": "United States",
    "phones": [
      "(323) 581-0806",
      "(323) 581-7772"
    ],
    "emails": [],
    "whatsapp": [],
    "social_links": [],
    "opening_hours": "",
    "materials": [
      "Copper",
      "Brass",
      "Steel",
      "Aluminum",
      "Iron",
      "Scrap Metal",
      "Stainless Steel"
    ],
    "material_prices": [],
    "description": ""
  },
  {
    "name": "JunkYards and Salvage Yards inCalifornia (CA)",
    "website": "https://usjunkyards.com/st-california/",
    "street_address": "",
    "city": "American",
    "region": "CA",
    "postal_code": "94503",
    "country": "United States",
    "phones": [
      "(888) 853-0481"
    ],
    "emails": [],
    "whatsapp": [],
    "social_links": [],
    "opening_hours": "",
    "materials": [
      "Auto Parts",
      "Scrap Metal"
    ],
    "material_prices": [],
    "description": "Find the nearest car junkyards and salvage yards near you in California ⚡ USJunkYards provides a list of all salvage yards where you can dispose of your car and get Cash."
  },
  {
    "name": "Junkyards & Auto Salvagein San Jose, CA",
    "website": "https://preferredjunkyard.com/california/san-jose/",
    "street_address": "220 Hillcap Ave",
    "city": "San Jose",
    "region": "CA",
    "postal_code": "95136",
    "country": "United States",
    "phones": [],
    "emails": [],
    "whatsapp": [],
    "social_links": [],
    "opening_hours": "",
    "materials": [
      "Auto Parts",
      "Aluminum",
      "Copper",
      "Brass"
    ],
    "material_prices": [],
    "description": "Find Trusted Junkyards and Auto Salvage Yards in San Jose, California that Buy Junk Cars and Sell Reliable Used Auto and Truck Parts."
  },
  {
    "name": "Los Angeles Scrap Yards, CA",
    "website": "https://iscrapapp.com/scrap-yards/los-angeles-ca/",
    "street_address": "75\nFire Wire\nForktruck Battery\nFSX 414\nFuses\nGold\nHard Drive Boards\nHard Drives\nHard Drives without Boards\nHastelloy Solids\nHastelloy Turnings\nHeliax Wire\nHigh Speed Steel\nHousewire\nIncomplete Car\nInconel\nInconel 792\nInconel 800\nInconel 825\nInk Cartridges\nInsulated Aluminum Wire\nInsulated Copper Cable\nInsulated Copper Wire\nInsulated Steel BX\nInvar\nJunkshop Extrusion\nKeyboard",
    "city": "s\nKov",
    "region": "AR",
    "postal_code": "",
    "country": "United States",
    "phones": [],
    "emails": [],
    "whatsapp": [],
    "social_links": [],
    "opening_hours": "",
    "materials": [
      "Battery",
      "Copper",
      "Appliance",
      "Brass",
      "Steel",
      "Catalytic Converter",
      "Aluminum",
      "Iron",
      "Stainless Steel",
      "Scrap Metal"
    ],
    "material_prices": [],
    "description": "Quickly locate Los Angeles scrap yards and scrap metal buyers in the area plus get access to their phone number, email address, up to the minute pricing even request a container with the iScrap App"
  },
  {
    "name": "Circosta Iron & Metal",
    "website": "https://iscrapapp.com/yards/us-california-san-francisco-circosta-iron-metal/",
    "street_address": "1801 Evans Avenue",
    "city": "San Francis",
    "region": "CO",
    "postal_code": "",
    "country": "United States",
    "phones": [
      "(415) 282-8568"
    ],
    "emails": [],
    "whatsapp": [],
    "social_links": [],
    "opening_hours": "",
    "materials": [
      "Battery",
      "Copper",
      "Brass",
      "Steel",
      "Catalytic Converter",
      "Aluminum",
      "Iron",
      "Stainless Steel",
      "Scrap Metal",
      "Lead"
    ],
    "material_prices": [],
    "description": "Circosta Iron & Metal, Scrap Metal Yard in San Francisco, California"
  },
  {
    "name": "SCRAP IRON & NON-FERROUS METALS",
    "website": "https://www.kramermetals.com/",
    "street_address": "1760 E. Slauson Avenue",
    "city": "Los Angeles",
    "region": "CA",
    "postal_code": "90058",
    "country": "United States",
    "phones": [
      "(323) 587-2277"
    ],
    "emails": [],
    "whatsapp": [],
    "social_links": [],
    "opening_hours": "",
    "materials": [
      "Appliance",
      "Steel",
      "Electronic",
      "Iron",
      "Scrap Metal"
    ],
    "material_prices": [],
    "description": ""
  },
  {
    "name": "eBay",
    "website": "https://abcautowreckingaz.com/",
    "street_address": "12344302 E. Illinois Street",
    "city": "Tucson",
    "region": "AZ",
    "postal_code": "85714",
    "country": "United States",
    "phones": [
      "(520) 294-1234"
    ],
    "emails": [],
    "whatsapp": [],
    "social_links": [],
    "opening_hours": "",
    "materials": [
      "Auto Parts"
    ],
    "material_prices": [],
    "description": "Tucson, AZ | Browse & Buy Online"
  },
  {
    "name": "Sacramento, California Junk Yards",
    "website": "https://www.usedpart.us/used-auto-parts/california/sacramento/",
    "street_address": "903 Del Paso Blvd",
    "city": "Sacramento",
    "region": "CA",
    "postal_code": "95815",
    "country": "United States",
    "phones": [
      "(800) 646-4790",
      "(800) 656-4790"
    ],
    "emails": [
      "sales@usedpart.us"
    ],
    "whatsapp": [],
    "social_links": [],
    "opening_hours": "",
    "materials": [
      "Battery",
      "Auto Parts"
    ],
    "material_prices": [],
    "description": "✓ IN STOCKMarshall's Auto Parts IncGet a PriceCall For A QuoteAbout This Yard"
  },
  {
    "name": "Advantage",
    "website": "https://www.adv-metals.com/",
    "street_address": "",
    "city": "A \nSan Diego",
    "region": "CA",
    "postal_code": "92154",
    "country": "United States",
    "phones": [],
    "emails": [
      "michael@adv-metals.com"
    ],
    "whatsapp": [],
    "social_links": [],
    "opening_hours": "",
    "materials": [
      "Scrap Metal",
      "Lead"
    ],
    "material_prices": [],
    "description": "Advantage Scrap Metal Recycling Inc. | A Local Scrap Metal Recycling Company In San Diego"
  },
  {
    "name": "Scrap Metal Recycling • Fernley, Nevada",
    "website": "https://www.proseservices.net/contact-us/scrap-metal-recycling-llc/",
    "street_address": "684 Bitritto Court",
    "city": "Modesto",
    "region": "CA",
    "postal_code": "95356",
    "country": "United States",
    "phones": [],
    "emails": [
      "info@proseservices.net"
    ],
    "whatsapp": [],
    "social_links": [],
    "opening_hours": "",
    "materials": [
      "Battery",
      "Scrap Metal"
    ],
    "material_prices": [],
    "description": ""
  },
  {
    "name": "Radius Recycling – Sacramento",
    "website": "https://iscrapapp.com/yards/us-california-rancho-cordova-radius-recycling-sacramento-2/",
    "street_address": "75\nFire Wire\nForktruck Battery\nFSX 414\nFuses\nGold\nHard Drive Boards\nHard Drives\nHard Drives without Boards\nHastelloy Solids\nHastelloy Turnings\nHeliax Wire\nHigh Speed Steel\nHousewire\nIncomplete Car\nInconel\nInconel 792\nInconel 800\nInconel 825\nInk Cartridges\nInsulated Aluminum Wire\nInsulated Copper Cable\nInsulated Copper Wire\nInsulated Steel BX\nInvar\nJunkshop Extrusion\nKeyboard",
    "city": "s\nKov",
    "region": "AR",
    "postal_code": "",
    "country": "United States",
    "phones": [
      "(916) 985-4810"
    ],
    "emails": [],
    "whatsapp": [],
    "social_links": [],
    "opening_hours": "",
    "materials": [
      "Battery",
      "Copper",
      "Brass",
      "Steel",
      "Catalytic Converter",
      "Aluminum",
      "Iron",
      "Stainless Steel",
      "Scrap Metal",
      "Lead"
    ],
    "material_prices": [],
    "description": "Radius Recycling - Sacramento, Scrap Metal Yard in Rancho Cordova, California"
  },
  {
    "name": "union central metal | Sell Scrap Metal | 2203 S Alameda St, Los Angeles, CA 90058, USA",
    "website": "https://www.unioncentralmetal.com/",
    "street_address": "2203 S Alameda St",
    "city": "Los Angeles",
    "region": "CA",
    "postal_code": "90058",
    "country": "United States",
    "phones": [
      "(213) 677-2401"
    ],
    "emails": [
      "unioncentralmetal@gmail.com"
    ],
    "whatsapp": [],
    "social_links": [],
    "opening_hours": "",
    "materials": [
      "Copper",
      "Brass",
      "Steel",
      "Aluminum",
      "Iron",
      "Scrap Metal",
      "Stainless Steel",
      "Zinc"
    ],
    "material_prices": [],
    "description": "Union Central Metal is a Family-owned Recycling and Scrap yard serving Los Angeles for 30 years! We buy ferrous and non-ferrous metal at fair prices with top-notch customer service. Visit us at 2203 S Alameda St, Los Angeles, CA 90058."
  }
]